Station Name,Latitude,Longitude,Elevation,IATA,WMO ID,Climate ID,Starting Date (hourly data),Ending Date (hourly data),Starting Date (daily data),Ending Date (daily data),Associated Location
(AE) BOW SUMMIT,51.7,-116.47,2080 m,,,3050PPF,,,1998-02-01,2007-11-01,
100 MILE HOUSE,51.65,-121.3,1059 m,,,1165791,,,1970-05-01,1999-11-01,100 Mile House
100 MILE HOUSE,51.65,-121.27,930 m,,,1095790,,,1957-06-01,1959-08-01,
100 MILE HOUSE 6NE,51.68,-121.22,928 m,,,1165793,,,1987-06-01,+,100 Mile House
108 MILE HOUSE,51.75,-121.33,957 m,,,1095796,,,1970-05-01,1973-07-01,
108 MILE HOUSE ABEL LAKE,51.62,-121.26,1005 m,,,109E7R6,,,1987-07-01,2020-11-01,
108 MILE HOUSE WATSON LAKE,51.7,-121.33,890 m,,,116N7R6,,,1987-07-01,1989-12-01,
150 MILE HOUSE,52.12,-121.93,738 m,,,1095820,,,1947-10-01,1963-09-01,
150 MILE HOUSE 7N,52.22,-122,884 m,,,1095821,,,1969-01-01,1975-01-01,
26 MILE DEPOT,48.42,-57.07,267 m,,,8403990,,,1962-01-01,1962-11-01,
70 MILE HOUSE,51.3,-121.4,1080 m,,,1167191,,,1974-05-01,1987-06-01,
ABBEY,50.7,-108.78,695 m,,,4020020,,,1956-05-01,2008-01-01,
ABBOTSFORD,49.02,-122.33,,,,1100015,,,1956-04-01,1956-12-01,
ABBOTSFORD A (Abbotsford Airport),49.03,-122.36,59 m,YXX,71108,1100031,2011-10-07,+,2012-06-01,+,Abbotsford
,,,,,,,,,,,Langley
ABBOTSFORD A (Abbotsford Airport),49.03,-122.36,59 m,YXX,71108,1100030,1953-01-01,2012-06-21,1944-10-01,2012-06-01,Abbotsford
,,,,,,,,,,,Langley
ABBOTSFORD A (Abbotsford Airport),49.03,-122.36,59 m,YXX,,1100032,2016-01-13,+,2018-10-01,+,Abbotsford
,,,,,,,,,,,Langley
ABBOTSFORD EAST,49.03,-122.25,8 m,,,1100035,,,1960-11-01,1962-12-01,
ABBOTSFORD KING ROAD,49.03,-122.3,61 m,,,1100037,,,1968-11-01,1973-03-01,
ABBOTSFORD UPPER SUMAS,49.05,-122.27,9 m,,,1100040,,,1935-11-01,1946-03-01,
ABEE AGDM,54.28,-112.97,664 m,XAF,71285,3010010,1990-03-07,+,2002-11-01,2021-03-01,
ABERCORN,45.03,-72.67,149 m,,,7020040,,,1950-12-01,1985-01-01,
ABERCROMBIE POINT,45.65,-62.72,11 m,,,8200015,,,1973-09-01,1978-12-01,
ABERDEEN,52.4,-106.17,518 m,,,4050037,,,1987-11-01,1991-09-01,
ABERFELDIE,49.5,-115.37,805 m,,,1150060,,,1950-05-01,1982-05-01,
ABITIBI CAMP 11,48.93,-89.35,442 m,,,6040010,,,1978-06-01,1983-12-01,
ABITIBI CAMP 11,48.85,-89.12,491 m,,,6040011,,,1983-11-01,1988-04-01,
ABITIBI CAMP 228,48.93,-89.25,472 m,,,6040018,,,1969-12-01,1978-06-01,
ABITIBI CAMP 230,49.35,-89.37,457 m,,,6040020,,,1969-11-01,1991-01-01,
ABITIBI CAMP 300,49.63,-89.75,427 m,,,6040022,,,1978-02-01,1986-12-01,
ABITIBI CANYON,49.88,-81.57,204 m,,,6070027,,,1931-02-01,1963-10-01,
ABITIBI POST,48.72,-79.37,259 m,,,7090050,,,1896-07-01,1936-02-01,
ACADIA FOREST EXP ST,45.99,-66.36,54 m,,,8100100,,,1955-01-01,2010-04-01,
ACADIA VALLEY,51.07,-110.32,735 m,PAC,71048,3020035,2009-02-13,+,2009-02-01,2021-03-01,
ACADIA VALLEY,51.18,-110.23,732 m,,,3020018,,,1980-08-01,1991-09-01,
ACADIA VALLEY CDA EPF,51.07,-110.13,,,,3020022,,,1965-07-01,1965-07-01,
ACADIA VALLEY EXP ST,51.08,-110.28,713 m,,,3020020,,,1954-01-01,1962-12-01,
ACADIA VALLEY MACTAVISH,51.2,-110.17,744 m,,,3020025,,,1988-05-01,2005-01-01,
ACADIA VALLEY VANDYNE,51.03,-110.3,709 m,,,3020031,,,1988-05-01,1998-09-01,
ACADIEVILLE,46.73,-65.28,61 m,,,8100105,,,1980-02-01,1995-01-01,
ACME CDA EPF,51.5,-113.42,905 m,,,3020040,,,1953-01-01,1982-06-01,
ACTIVE PASS,48.87,-123.28,4 m,,,1010066,,,1984-07-01,1996-11-01,
ACTON BEARDMORE,43.63,-80.03,320 m,,,6150039,,,1966-05-01,1967-10-01,
ACTON MONITOR STN,43.65,-80.05,412 m,,,6140041,,,1966-07-01,1971-10-01,
ACTON VALE,45.65,-72.57,95 m,,,7020055,,,1964-06-01,1973-08-01,
ADAIR LO,59.17,-118.33,366 m,,,3070043,,,1968-05-01,2011-08-01,
ADAMS CREEK LO,53.72,-118.57,2210 m,,,3060045,,,1962-05-01,2011-08-01,
ADAMS LAKE SKWAAM BAY,51.08,-119.8,457 m,,,1160075,,,1972-06-01,1975-08-01,
ADDENBROKE ISLAND,51.6,-127.86,21 m,WCZ,,1060080,1994-02-01,2001-12-13,1978-01-01,2021-03-01,
ADEN,49.05,-111.32,1036 m,,,3040049,,,1962-06-01,2000-08-01,
ADRA,49.73,-119.58,1003 m,,,1120090,,,1928-09-01,1953-08-01,
AGASSIZ CDA,49.24,-121.76,15 m,,,1100120,,,1889-10-01,2021-03-01,Agassiz
,,,,,,,,,,,Chilliwack
AGASSIZ MOUNTAIN INSTITUTE,49.27,-121.83,30 m,,,1100130,,,1986-04-01,1995-05-01,
AGASSIZ RCS (Agassiz),49.24,-121.76,19 m,WZA,71113,1100119,1994-02-01,+,1988-11-01,+,Agassiz
,,,,,,,,,,,Chilliwack
AGNEW MINE,46.43,-81.62,305 m,,,6060070,,,1978-07-01,1983-11-01,
AGUASABON,48.78,-87.17,189 m,,,6040081,,,1950-06-01,1972-05-01,
AIGREMONT,49.3,-73.85,404 m,,,7060070,,,1973-11-01,1982-03-01,
AILSA CRAIG,43.15,-81.53,229 m,,,6140091,,,1968-04-01,1972-02-01,
AIRDRIE,51.32,-113.88,1082 m,,,3030060,,,1961-08-01,1963-04-01,
AISHIHIK A,61.65,-137.48,966 m,,,2100100,1953-01-01,1966-09-27,1943-06-01,1966-09-01,
AIYANSH,55.23,-129.02,229 m,,,1070150,,,1924-01-01,1971-09-01,
AIYANSH 2SE,55.18,-129.05,213 m,,,1070154,,,1974-07-01,1985-08-01,
AKAMINA PASS,49.03,-114.05,1800 m,,,30500FR,,,2002-06-01,2007-11-01,
AKLAVIK A (Aklavik Airport),68.22,-135.01,6 m,YKD,,2200100,1953-01-01,2014-03-06,1926-07-01,2014-12-01,Aklavik
AKLAVIK A (Aklavik Airport),68.22,-135.01,6 m,YKD,,2200101,2014-03-04,+,,,Aklavik
AKLAVIK A (Aklavik Airport),68.22,-135.01,6 m,YKD,,2200105,2014-10-23,+,2018-10-01,+,Aklavik
AKLAVIK RADIOSONDE,68.23,-135,9 m,,,2200200,,,1953-03-01,1960-09-01,
AKULIVIK,60.83,-78.17,77 m,MQL,,7100070,,,,,
AKULIVIK A (Akulivik Airport),60.82,-78.15,23 m,YKO,,7100075,1992-09-02,2015-11-19,,,Akulivik
AKULIVIK A (Akulivik Airport),60.82,-78.15,23 m,YKO,,7100071,2015-11-19,+,,,Akulivik
AKULIVIK A (Akulivik Airport),60.82,-78.15,23 m,YKO,,7100072,2018-10-30,+,2018-10-01,+,Akulivik
ALAMEDA CDA EPF,49.25,-102.28,580 m,,,4010080,,,1894-01-01,1965-03-01,
ALBANEL,48.88,-72.45,152 m,,,7060080,,,1922-06-01,1991-01-01,
ALBANY,46.27,-63.58,34 m,,,8300060,,,1984-08-01,1993-03-01,
ALBERNI BEAVER CREEK,49.37,-124.93,91 m,,,1030180,,,1894-05-01,1959-02-01,
ALBERNI CITY RESERVOIR,49.27,-124.78,65 m,,,1030185,,,1962-03-01,1963-12-01,
ALBERNI LUPSI CUPSI,49.25,-124.82,9 m,,,1030210,,,1948-11-01,1974-12-01,
ALBERNI MCCOY LAKE,49.28,-124.88,43 m,,,1030220,,,1958-10-01,1973-08-01,
ALBERNI ROBERTSON CREEK,49.34,-124.98,74 m,,,1030230,,,1961-02-01,2021-03-01,Port Alberni
ALBERT HALL AGCM,53.11,-111.18,658 m,PAH,71005,3010060,2007-06-27,+,2007-05-01,2021-03-01,
ALBERT HEAD,48.4,-123.48,17 m,,,1010235,,,1971-06-01,1995-04-01,
ALBERTON,46.85,-64.02,3 m,,,8300080,,,1969-08-01,2008-05-01,
ALBERTON,43.18,-80.05,215 m,,,6150060,,,1994-06-01,2008-12-01,
ALBERTON SNOW,46.81,-64.06,9 m,,,8300085,,,2012-01-01,2019-03-01,
ALBERTVILLE,48.3,-67.35,335 m,,,7050085,,,1963-01-01,1985-01-01,
ALBION,43.93,-79.83,274 m,,,6150100,,,1956-05-01,2000-12-01,
ALBION FIELD CENTRE,43.92,-79.83,282 m,,,6150103,,,1969-05-01,2001-03-01,
ALBREDA,52.67,-119.2,873 m,,,1170237,,,1973-06-01,1977-03-01,
ALDER FLATS LO,52.8,-114.82,1076 m,,,3010080,,,1952-06-01,1984-09-01,
ALDERGROVE,49.12,-122.48,76 m,,,1100240,,,1953-04-01,1980-06-01,
ALDERGROVE 2,49.03,-122.48,60 m,,,1100241,,,1980-06-01,1989-06-01,
ALDERGROVE 48 AVENUE,49.08,-122.52,85 m,,,1100245,,,1987-03-01,1991-11-01,
ALDERGROVE CENTRE,49.05,-122.47,60 m,,,1100KM0,,,1986-09-01,1989-03-01,
ALDERSHOT,43.32,-79.87,145 m,,,6150135,,,1947-02-01,1977-02-01,
ALERT,82.52,-62.28,31 m,WLT,,2400300,1953-01-01,2006-10-03,1950-07-01,2006-10-01,
ALERT A (CFS Alert),82.52,-62.28,31 m,YLT,,2400302,1988-04-01,+,,,Alert
ALERT BASE (AUT),82.5,-62.37,92 m,WML,,2400304,1983-04-29,1986-11-29,,,
ALERT BAY,50.58,-126.93,59 m,,,1020270,1954-01-01,1994-02-21,1913-12-01,2006-12-01,
ALERT CLIMATE,82.5,-62.33,65 m,ZLT,71355,2400305,2004-06-21,+,2004-06-01,+,Alert
ALERT UA,82.5,-62.33,65 m,,71082,2400306,,,1997-04-01,+,Alert
ALEXANDER,49.83,-100.3,427 m,,,5010033,,,1979-05-01,1999-09-01,
ALEXANDRIA,45.32,-74.61,77 m,TAL,,6100166,2003-03-27,2006-05-24,2003-10-01,2006-05-01,
ALEXIS CREEK,52.1,-123.62,853 m,,,1080283,,,1954-07-01,1956-07-01,
ALEXIS CREEK,52.08,-123.28,800 m,,,1080284,,,1973-08-01,1995-05-01,
ALEXIS CREEK,52.13,-123.33,724 m,,,1080285,,,1919-10-01,1963-09-01,
ALEXIS CREEK TAUTRI CRK,52.55,-123.18,1219 m,,,1080289,,,1961-02-01,1983-09-01,
ALEXIS RIVER (AUT),52.65,-56.87,48 m,WXW,,8500036,1994-02-01,1999-01-22,,,
ALEZA LAKE,54.12,-122.07,625 m,,,1090300,,,1952-02-01,1980-07-01,
ALFRED,45.56,-74.88,57 m,TAE,,6100176,2003-12-03,2007-06-14,2003-10-01,2007-06-01,
ALFRED,45.55,-74.88,54 m,,,6100172,,,1984-09-01,1986-03-01,
ALFRED AUTOMATIC CLIMATE STATION,45.55,-74.88,54 m,,,6100174,,,1989-01-01,1989-10-01,
ALGAR LO,56.12,-111.78,780 m,,,3060110,,,1959-04-01,2011-08-01,
ALGONQUIN PARK,45.58,-78.55,433 m,,,6080189,,,1917-07-01,1960-08-01,
ALGONQUIN PARK EAST,45.53,-78.27,412 m,,,6080191,,,1961-05-01,1972-11-01,
ALGONQUIN PARK EAST GATE (Algonquin Park East Gate),45.53,-78.27,397 m,TNK,71581,6080192,2004-09-01,+,2004-09-01,+,Algonquin Park (Brent)
,,,,,,,,,,,Algonquin Park (Lake of Two Rivers)
,,,,,,,,,,,Oxtongue Lake
ALGONQUIN PARK WEST,45.33,-78.85,427 m,,,6080193,,,1961-05-01,1972-11-01,
ALICE ARM,55.68,-129.5,314 m,,,1060330,,,1948-01-01,1964-09-01,
ALICE ARM,55.47,-129.47,2 m,,,1060331,,,1973-06-01,1978-09-01,
ALIDA,49.45,-101.8,585 m,,,4010100,,,1989-09-01,2004-03-01,
ALIX,52.38,-113.17,788 m,,,3020120,,,1905-08-01,1951-09-01,
ALIX,52.37,-113.3,853 m,,,3020121,,,1970-07-01,1973-09-01,
ALKALI LAKE,51.78,-122.28,,,,1090335,,,1910-09-01,1922-03-01,
ALLAN PARK,44.17,-80.93,285 m,,,6110210,,,1975-08-01,1976-11-01,
ALLIANCE,52.43,-111.78,716 m,,,3010160,,,1916-05-01,1982-07-01,
ALLIANCE AGCM,52.32,-111.78,737 m,PAA,71006,3010162,2007-08-22,+,2007-05-01,2021-03-01,
ALLIANCE GREENVIEW,52.38,-111.8,732 m,,,3010164,,,1960-04-01,1962-12-01,
ALLIANCE SOUTH,52.42,-111.78,713 m,,,3010175,,,1982-10-01,2000-10-01,
ALLISON PASS,49.13,-120.83,1341 m,,,1110350,,,1958-09-01,1972-10-01,
ALLISON PASS DOH,49.12,-120.87,1340 m,,,1110352,,,1974-11-01,1989-05-01,
ALLISTON,44.15,-79.85,213 m,,,6110216,,,1953-03-01,1975-01-01,
ALLISTON,46.07,-62.6,61 m,,,8300100,,,1936-01-01,2016-12-01,
ALLISTON NELSON,44.15,-79.87,221 m,,,6110218,,,1973-07-01,2008-01-01,
ALLISTON SNOW,46.07,-62.6,61 m,,,8300102,,,2008-12-01,2009-04-01,
ALLOA,43.72,-79.87,262 m,,,6150224,,,1951-02-01,1954-11-01,
ALMA,45.6,-64.95,43 m,,,8100200,,,1950-02-01,2011-03-01,Fundy (National Park)
,,,,,,,,,,,Hopewell
ALMASIPPI,49.55,-98.2,274 m,,,5020036,,,1902-05-01,1925-06-01,
ALMONTE,45.18,-76.23,125 m,,,6100226,,,1912-02-01,1980-02-01,
ALONSA,50.83,-99.05,274 m,,,5040037,,,1980-10-01,2007-11-01,
ALOUETTE LAKE,49.28,-122.48,117 m,,,1100360,,,1924-01-01,1982-12-01,
ALOUETTE POWER HOUSE,49.37,-122.32,91 m,,,1100370,,,1935-07-01,1949-03-01,
ALSASK,51.38,-110,701 m,,,4040120,,,1913-06-01,1951-12-01,
ALSASK,51.38,-110.03,701 m,,,3020220,,,1957-05-01,1965-04-01,
ALSASK,51.42,-109.9,661 m,,,4020121,,,1970-08-01,1970-09-01,
ALSASK HARDENE,51.33,-109.85,658 m,,,4020130,,,1959-05-01,1997-11-01,
ALTA LAKE,50.15,-122.95,668 m,,,1040390,1953-01-01,1976-04-22,1950-10-01,1976-03-01,Whistler
ALTA LAKE 2,50.15,-122.98,640 m,,,1040420,,,1931-11-01,1969-09-01,
ALTA LAKE NORTHAIR MINE,50.12,-123.1,1006 m,,,1040400,,,1975-12-01,1987-07-01,
ALTAWAN,49.25,-110.01,945 m,,,3040223,,,1965-11-01,2007-09-01,
ALTON,43.85,-80.08,401 m,,,6150243,,,1887-01-01,1964-01-01,
ALTONA,49.1,-97.55,248 m,,,5020040,,,1948-11-01,2008-07-01,
ALTONA CFAM,49.1,-97.55,248 m,,,5020050,,,1959-09-01,1968-07-01,
ALTONA SOUTH,49.05,-97.57,250 m,,,5020054,,,1984-09-01,1989-06-01,
ALVINSTON,42.87,-81.88,221 m,,,6120250,,,1965-06-01,1969-12-01,
AMARANTH,50.63,-98.72,259 m,,,5040060,,,1980-10-01,2004-12-01,
AMBER LO,59.18,-119.45,579 m,,,3070230,,,1967-05-01,2011-08-01,
AMHERST (AUT),45.85,-64.27,23 m,WAH,,8200091,1994-02-01,2005-05-04,1992-12-01,2005-05-01,
AMHERST ISLAND CDA EPF,47.22,-61.97,15 m,,,7050100,,,1957-05-01,1962-09-01,
AMHERSTBURG,42.1,-83.09,182 m,,,6130257,,,1988-07-01,2021-03-01,
AMISK,52.68,-111.12,701 m,,,3010232,,,1967-10-01,1974-12-01,
AMOS,48.57,-78.13,310 m,,,7090120,,,1913-06-01,2000-05-01,
AMPHITRITE POINT,48.92,-125.53,11 m,,,1030425,,,1958-01-01,1980-04-01,
AMPHITRITE POINT,48.92,-125.54,27 m,WAN,,1030426,1980-05-01,2001-10-09,1980-05-01,2010-03-01,
AMQUI (Amqui),48.47,-67.43,166 m,WZS,71386,7050145,1995-08-24,2019-07-08,1996-08-01,2019-07-01,Amqui
,,,,,,,,,,,Matapedia
,,,,,,,,,,,Vallée de la Matapédia
AMQUI,48.52,-67.45,183 m,,,7050140,,,1957-03-01,1997-10-01,Amqui
AMULET,49.62,-104.73,728 m,,,4010150,,,1970-12-01,2002-05-01,
AMYOT LAKE,53.7,-106.68,,,,4050153,,,1972-10-01,1972-12-01,
ANAHIM LAKE,52.35,-125.33,1097 m,,,1080430,,,1954-09-01,1967-06-01,
ANAHIM LAKE,52.47,-125.32,1108 m,,,1080431,,,1975-07-01,1994-03-01,
ANAHIM LAKE 5 MILE RANCH,52.53,-125.07,1246 m,,,1080432,,,1980-09-01,1988-07-01,
ANDREW,54.02,-112.23,610 m,,,3010234,,,1973-06-01,2017-12-01,
ANDREW AGDM,53.92,-112.28,625 m,XAG,71286,3010237,1998-04-08,+,2002-12-01,2021-03-01,
ANEROID,49.72,-107.3,754 m,,,4020160,,,1916-05-01,2005-04-01,
ANGERS,45.55,-75.55,91 m,,,7030170,,,1962-01-01,2020-12-01,
ANGLIA,51.57,-108.17,567 m,,,4040180,,,1913-04-01,1945-06-01,
ANGUS,44.32,-79.87,191 m,,,6110270,,,1930-02-01,1965-02-01,
ANGUS CAMPHILL,44.28,-79.85,212 m,,,6110275,,,1994-09-01,1997-11-01,
ANGUS TOWER,60.35,-114.28,247 m,,,2200310,,,1968-06-01,1990-08-01,
ANNACIS ISLAND,49.18,-122.93,5 m,,,1100440,,,1954-10-01,1962-03-01,
ANNAPOLIS ROYAL,44.75,-65.52,8 m,,,8200100,,,1914-04-01,2007-06-01,
ANNIE LAKE ROBINSON,60.47,-134.83,820 m,,,2100115,,,1976-09-01,2006-05-01,
ANOLA,49.88,-96.65,255 m,,,5020069,,,1986-07-01,1987-10-01,
ANSE AU GRIFFON,48.93,-64.28,61 m,,,7050195,,,1973-09-01,1985-01-01,
ANSELL LO,53.55,-116.5,968 m,,,3060235,,,1960-06-01,2011-09-01,
ANSELMO,53.97,-115.42,853 m,,,3060237,,,1990-05-01,2003-09-01,
ANTHRACITE,51.2,-115.5,1387 m,,,3050240,,,1929-03-01,1962-02-01,
ANTICOSTI HEATH POINT,49.1,-61.7,9 m,,,7050198,,,1882-07-01,1935-09-01,
ANTICOSTI SW POINT,49.4,-63.55,7 m,,,7050200,,,1872-02-01,1954-10-01,
ANTICOSTI WEST POINT,49.87,-64.53,9 m,,,7050210,,,1882-08-01,1933-08-01,
ANTIGONISH,45.63,-61.97,9 m,,,8200150,,,1880-12-01,1947-12-01,
ANTIGONISH,45.62,-61.98,31 m,,,8200151,,,1979-07-01,1982-12-01,
ANTIGONISH SNOW,45.62,-61.9,30 m,,,8200152,,,2009-01-01,2009-04-01,
ANTLER HILL,52.05,-113.85,945 m,,,3020250,,,1973-07-01,1973-12-01,
ANVIL,62.37,-133.38,1158 m,,,2100120,,,1967-11-01,1991-03-01,
ANVIL ISLAND,49.52,-123.3,31 m,,,1040445,,,1956-10-01,1963-06-01,
ANYOX,55.42,-129.82,113 m,,,1060446,,,1916-05-01,1935-06-01,
ANZAC,56.45,-111.05,488 m,,,3060280,,,1950-10-01,1957-08-01,
ANZAC,56.45,-111.03,495 m,,,3060281,,,1972-11-01,1979-07-01,
APEX MTN LODGE,49.4,-119.92,1890 m,,,1120447,,,1965-06-01,1971-09-01,
APPLE HILL,45.22,-74.75,91 m,,,6100284,,,1950-11-01,1961-11-01,
APPLETON,45.19,-76.11,133 m,,,6100285,,,1992-03-01,2021-03-01,
APPS MILL,43.13,-80.38,230 m,,,6140286,,,1972-10-01,1972-11-01,
APRIL BROOK IHD,46.23,-61.13,61 m,,,8200155,,,1966-12-01,1976-01-01,
APSLEY,44.77,-78.08,274 m,,,6160297,,,1922-03-01,1957-03-01,
ARAWANA,49.58,-119.57,518 m,,,1120M47,,,1970-12-01,1976-06-01,
ARBORG,50.93,-97.08,224 m,,,5030080,,,1951-01-01,2016-06-01,
ARCHERWILL,52.43,-104.02,556 m,,,4080200,,,1951-01-01,1982-11-01,
ARCOLA CDA EPF,49.63,-102.53,604 m,,,4010240,,,1952-03-01,1993-06-01,
ARCTIC BAY (Arctic Bay Airport),73.01,-85.05,22 m,YAB,,2400399,2011-01-13,+,2018-10-01,+,Arctic Bay
,,,,,,,,,,,Nanisivik
ARCTIC BAY,73.03,-85.15,11 m,,,2400400,1953-01-01,1976-12-22,1937-09-01,1976-12-01,Arctic Bay
,,,,,,,,,,,Nanisivik
ARCTIC BAY A (Arctic Bay Airport),73.01,-85.05,22 m,YAB,,2400401,2012-07-24,+,,,Arctic Bay
,,,,,,,,,,,Nanisivik
ARCTIC BAY A (Arctic Bay Airport),73.01,-85.05,22 m,YAB,,2400402,2011-02-09,2012-07-26,,,Arctic Bay
,,,,,,,,,,,Nanisivik
ARCTIC BAY CS,72.99,-85.01,10 m,XAT,71592,2400404,2000-02-19,+,1999-11-01,+,Arctic Bay
,,,,,,,,,,,Nanisivik
ARCTIC RED RIVER,67.45,-133.73,31 m,,,2200412,,,1974-06-01,1975-08-01,
ARDEN,44.7,-76.95,,,,6100310,,,1895-08-01,1911-01-01,
ARDENVILLE,49.53,-113.43,1126 m,PAV,,3030200,2014-10-21,+,2018-05-01,2021-03-01,
ARGENTA,50.17,-116.93,549 m,,,1140448,,,1957-11-01,1974-06-01,
ARGENTIA (AUT) (Argentia),47.29,-53.99,19 m,WAR,71807,8400104,1987-01-01,2017-08-03,1992-12-01,2017-08-01,Placentia
ARGENTIA A,47.3,-54,14 m,,,8400100,1953-01-01,1970-05-25,1945-03-01,1970-05-01,
ARGENTIA A,47.3,-54,16 m,,,8400102,1976-05-01,1986-10-31,1976-05-01,1986-10-01,
ARGYLE HEAD,43.83,-65.87,15 m,,,8200170,,,1981-06-01,1983-11-01,
ARGYLE SHORE,46.17,-63.35,15 m,,,8300108,,,1988-07-01,1991-11-01,
ARKONA,43.03,-81.92,183 m,,,6120315,,,1882-07-01,1915-03-01,
ARMADA EXP ST,50.4,-112.68,911 m,,,3030300,,,1955-01-01,1963-03-01,
ARMAGH,46.75,-70.53,358 m,,,7050240,,,1916-06-01,1994-05-01,
ARMAGH STATION,46.72,-70.62,312 m,,,7050245,,,1966-12-01,1986-11-01,
ARMENA,53.13,-112.95,747 m,,,3010301,,,1969-06-01,1972-08-01,
ARMIT,52.83,-101.78,308 m,,,4080250,,,1958-09-01,1994-10-01,
ARMSTRONG,50.28,-89.15,342 m,,,6040322,,,1926-05-01,1947-10-01,
ARMSTRONG,50.45,-119.18,359 m,,,1160450,,,1912-01-01,1992-09-01,
ARMSTRONG (AUT),50.29,-88.91,323 m,WYW,71841,6040325,1953-01-01,+,1938-08-01,+,Armstrong
,,,,,,,,,,,Gull Bay
ARMSTRONG (AUT),50.3,-89.03,351 m,,,6040326,1994-02-01,1995-08-19,1994-10-01,1995-06-01,
ARMSTRONG A (Armstrong Airport),50.29,-88.91,323 m,YYW,,6040327,2015-06-18,+,2018-10-01,+,Armstrong
,,,,,,,,,,,Gull Bay
ARMSTRONG GRANDVIEW,50.4,-119.28,503 m,,,1120475,,,1959-03-01,1960-06-01,
ARMSTRONG HULLCAR,50.5,-119.22,505 m,,,1160483,,,1971-07-01,1998-12-01,
ARMSTRONG JELLIEN,50.25,-89.1,341 m,,,6040330,,,1987-12-01,1992-10-01,
ARMSTRONG NORTH,50.47,-119.13,373 m,,,1160485,,,1972-10-01,1993-12-01,
ARMSTRONG OTTER LAKE,50.4,-119.25,342 m,,,1120486,,,1991-04-01,1992-09-01,
ARNES,50.8,-96.95,221 m,WRE,,5030109,1994-02-01,2000-10-06,,,
ARNESON,51.23,-110.05,754 m,,,3020L01,,,1983-04-01,1986-09-01,
ARNOLDS COVE,47.75,-54,15 m,,,8400135,,,1971-07-01,1994-06-01,
ARNPRIOR,45.43,-76.38,99 m,,,6100340,,,1959-09-01,1964-01-01,
ARNPRIOR GRANDON,45.42,-76.37,107 m,,,6100345,,,1959-10-01,1999-09-01,
AROOSTOOK,46.71,-67.72,80 m,,,8100300,,,1929-06-01,2021-03-01,
ARRAN,51.97,-101.73,450 m,,,4080260,,,1957-10-01,1971-07-01,
ARRAN 23N,52.2,-101.63,450 m,,,4080262,,,1970-06-01,1992-10-01,
ARRAS,55.73,-120.53,677 m,,,1180490,,,1970-04-01,1988-09-01,
ARROW RIVER,50.17,-100.85,486 m,,,5010114,,,1982-10-01,1983-08-01,
ARROWWOOD,50.73,-113.15,936 m,,,3030302,,,1965-06-01,1975-07-01,
ARTHABASKA,46.02,-71.95,140 m,,,7020305,,,1969-10-01,2020-12-01,
ARTHUR,43.82,-80.57,452 m,,,6140348,,,1964-01-01,1988-01-01,
ARTHURETTE BIRCH RIDGE,46.75,-67.47,215 m,,,8100350,,,1967-06-01,1983-09-01,
ARTLAND,52.78,-109.9,640 m,,,4040267,,,1983-01-01,2005-06-01,
ARUNDEL,45.95,-74.62,191 m,,,7030310,,,1963-12-01,2021-02-01,Mont-Tremblant
ARVIAT A (Arviat Airport),61.09,-94.07,10 m,YEK,,2300428,2012-10-09,+,,,Arviat
ARVIAT A (Arviat Airport),61.09,-94.07,10 m,YEK,71174,2300427,2012-07-18,+,2012-07-01,+,Arviat
ARVIAT A (Arviat Airport),61.1,-94.07,10 m,YEK,,2300MKF,1984-12-03,2012-10-11,1973-03-01,2016-12-01,Arviat
ARVIAT AWOS (Arviat Airport),61.1,-94.07,10 m,YEK,,2300426,2008-07-02,2012-07-26,2008-07-01,2012-07-01,Arviat
ARVIAT CLIMATE,61.1,-94.07,10 m,XAR,71322,2301153,2004-12-16,+,2004-06-01,+,Arviat
ARVIDA,48.43,-71.17,102 m,,,7060320,,,1931-07-01,1989-09-01,
ASBESTOS,45.77,-71.95,229 m,,,7020360,,,1948-05-01,1987-04-01,
ASBESTOS HILL,61.8,-73.95,484 m,,,7110370,,,1960-05-01,1963-11-01,
ASH RIVER,49.47,-125.08,305 m,,,1030550,,,1957-07-01,1959-11-01,
ASH RIVER GENERATING STN,49.37,-125.15,91 m,,,1030552,,,1959-10-01,1969-06-01,
ASHCROFT (Ashcroft),50.71,-121.28,327 m,VAS,71681,1160515,2010-06-16,+,2010-06-01,+,Cache Creek
ASHCROFT,50.72,-121.28,305 m,,,1160510,,,1912-09-01,1970-01-01,
ASHCROFT,50.73,-121.27,331 m,,,1160511,,,1973-05-01,1989-11-01,
ASHCROFT M,50.72,-121.33,488 m,,,1160540,,,1944-11-01,1972-08-01,
ASHCROFT NORTH,50.73,-121.27,320 m,,,1160520,,,1980-08-01,1986-09-01,
ASHCROFT VENABLES VLY,50.55,-121.33,640 m,,,1160546,,,1984-06-01,1987-01-01,
ASHDALE,45,-63.88,70 m,,,8200180,,,2000-12-01,2004-03-01,
ASHERN,51.13,-98.37,263 m,,,5040120,,,1951-01-01,1991-01-01,
ASHERN NORTHWEST,51.2,-98.38,267 m,,,5040JK0,,,1989-10-01,2001-02-01,
ASHTON,45.2,-75.97,137 m,,,6100353,,,1956-08-01,1956-09-01,
ASHTON HILL,47.1,-65.73,279 m,,,8100400,,,1935-06-01,1947-08-01,
ASHTON STN SESIA FARM,45.17,-76.07,137 m,,,6100363,,,1959-08-01,1973-12-01,
ASHUANIPI,52.53,-66.23,546 m,,,8500200,,,1948-10-01,1950-12-01,
ASHVILLE,51.28,-100.28,320 m,,,5040121,,,1973-07-01,1979-10-01,
ASQUITH,52.13,-107.23,519 m,,,4050275,,,1961-11-01,1981-09-01,
ASSINIBOIA,49.73,-105.97,724 m,,,4020280,,,1915-06-01,1997-07-01,
ASSINIBOIA AIRPORT (Assiniboia Airport),49.73,-105.95,726 m,WJI,71487,4020286,1994-02-01,+,1992-12-01,+,Assiniboia
ASSUMPTION,58.7,-118.68,305 m,,,3070310,,,1961-08-01,1970-03-01,
ASSUMPTION,58.7,-118.72,335 m,,,3070311,,,1973-09-01,1975-07-01,
ATHABASCA,54.72,-113.28,515 m,,,3060320,,,1918-06-01,1967-09-01,
ATHABASCA 1,54.72,-113.29,515 m,,,3060L20,,,1986-08-01,2020-03-01,
ATHABASCA 2,54.82,-113.54,626 m,,,3060321,,,1952-06-01,2010-12-01,
ATHABASCA 3,54.72,-113.28,527 m,,,3060322,,,1973-11-01,1974-03-01,
ATHABASCA AGCM (Athabasca),54.63,-113.38,635 m,PAF,71271,3060330,2008-06-05,+,2008-06-01,+,Athabasca
ATHABASCA EXP ST,54.7,-113.38,579 m,,,3060337,,,1952-01-01,1957-12-01,
ATHABASCA LANDING,54.72,-113.28,503 m,,,3060352,,,1900-04-01,1927-07-01,
ATHABASCA LO,53.42,-117.78,1631 m,,,3060353,,,1954-06-01,2011-09-01,
ATHENS,44.65,-75.92,122 m,,,6100375,,,1969-06-01,1978-01-01,
ATIKAMEG,55.9,-115.65,651 m,,,3070400,,,1959-06-01,1959-06-01,
ATIKOKAN,48.75,-91.62,395 m,,,6020379,1966-07-01,1988-10-28,1966-07-01,1988-10-01,
ATIKOKAN (AUT) (Atikokan),48.76,-91.63,389 m,WCH,71747,6020LPQ,1994-02-01,+,2000-12-01,+,Atikokan
,,,,,,,,,,,Mine Centre
ATIKOKAN CLI,48.73,-91.63,391 m,,,6020381,,,1914-07-01,1971-06-01,
ATIKOKAN MARMION,48.8,-91.58,442 m,,,6020384,,,1979-12-01,2007-07-01,
ATKINSON POINT,69.93,-131.4,3 m,,,2200430,,,1959-01-01,1963-08-01,
ATLEE,50.82,-110.95,793 m,,,3020401,,,1982-06-01,1995-10-01,
ATLEE AGCM,50.81,-111.01,795 m,PAT,71986,3020405,2009-02-13,+,2009-02-01,2021-03-01,
ATLIN,59.57,-133.7,674 m,,,1200560,,,1899-03-01,2021-03-01,
ATMORE,54.82,-112.55,610 m,,,3060403,,,1973-06-01,1973-08-01,
ATMORE AGDM,54.78,-112.83,574 m,XAJ,71287,3060406,1992-03-04,+,2002-11-01,2021-03-01,
ATNARKO PARKS CAMP,52.42,-125.92,290 m,,,1080562,,,1979-08-01,1981-08-01,
ATTAWAPISKAT,52.92,-82.45,9 m,,,6010387,,,1968-09-01,1968-11-01,
ATTAWAPISKAT A (Attawapiskat Airport),52.93,-82.43,9 m,YAT,71653,6010400,2015-01-06,+,2015-01-01,+,Attawapiskat
ATWATER,50.82,-102.22,536 m,,,4010310,,,1977-03-01,2008-03-01,
AUDET,45.65,-70.73,514 m,,,7020391,,,1965-05-01,1985-01-01,
AUPALUK A (Aupaluk Airport),59.3,-69.6,37 m,YLA,,7110600,2015-10-08,+,,,Aupaluk
AUPALUK A (Aupaluk Airport),59.3,-69.6,37 m,YLA,,7110601,2018-10-30,+,2018-10-01,+,Aupaluk
AUPALUK A (Aupaluk Airport),59.3,-69.6,37 m,YLA,,7110LRJ,1992-11-25,2015-10-08,,,Aupaluk
AURORA,43.95,-79.4,270 m,,,6150395,,,1883-04-01,1919-05-01,
AURORA LO,52.65,-115.72,1341 m,,,3010410,,,1968-06-01,2011-09-01,
AURORA MOE,44.02,-79.47,259 m,,,6150396,,,1980-09-01,1984-04-01,
AURORA NE,44.02,-79.45,260 m,,,6150398,,,2003-07-01,2009-11-01,
AURORA PAYMENT,43.98,-79.47,282 m,,,6150397,,,1971-09-01,1975-07-01,
AUSTIN,49.9,-98.98,328 m,,,5040128,,,1989-09-01,1995-08-01,
AUTEUIL,45.65,-73.73,53 m,,,7020392,,,1983-06-01,2016-11-01,
AVOLA,51.78,-119.33,610 m,,,1160565,,,1974-05-01,1982-02-01,
AVON,44.88,-64.22,24 m,,,8200200,,,1949-11-01,2001-01-01,
AVONDALE,45.02,-64.12,42 m,,,8200210,,,1993-05-01,2006-04-01,
AVONDALE CDA,47.42,-53.23,133 m,,,8400225,,,1955-07-01,1996-09-01,
AVONLEA EXP ST,50.02,-105.05,601 m,,,4010320,,,1951-12-01,1955-07-01,
AVONMORE,45.17,-74.97,91 m,,,6100398,,,1976-05-01,2006-06-01,
AYLESBURY,50.93,-105.7,579 m,,,4010358,,,1973-05-01,1980-01-01,
AYLESBURY CDA EPF,51,-105.67,576 m,,,4010360,,,1951-07-01,1962-08-01,
AYLESFORD,45.03,-64.87,40 m,,,8200220,,,1961-04-01,1984-02-01,
AYLMER,42.77,-80.98,229 m,,,6130409,,,1948-05-01,1981-12-01,
AYLMER,42.77,-80.98,232 m,,,6130411,,,1996-06-01,2004-02-01,
AYLMER 2,42.77,-81,232 m,,,6130415,,,1958-05-01,1961-03-01,
AYLMER ONT HYDRO,42.78,-80.98,236 m,,,6130420,,,1983-05-01,2000-08-01,
AYLSHAM,53.2,-103.8,362 m,,,4070365,,,1968-05-01,2005-04-01,
AYR,43.28,-80.45,290 m,,,6140437,,,1956-05-01,1961-07-01,
AYTON,44.08,-80.83,361 m,,,6110439,,,1988-05-01,1993-12-01,
AZURE (Azure),50.51,-114.01,1143 m,PAZ,71981,3030450,2008-11-26,+,2008-11-01,+,High River
BABBAGE RIVER (AUT),68.82,-138.75,183 m,,,2100143,1988-01-01,1989-08-09,,,
BABINE LAKE FISHERIES,55.07,-126.53,713 m,,,1070571,,,1912-09-01,1936-07-01,
BABINE LAKE HALIFAX BAY,55.05,-126.48,712 m,,,1070572,,,1972-05-01,1973-10-01,
BABINE LAKE PINKUT CREEK,54.45,-125.46,713 m,,,1070573,,,1968-12-01,2012-02-01,
BACCARO,43.47,-65.47,3 m,,,8200250,,,1957-12-01,1979-06-01,
BACCARO POINT,43.45,-65.47,13 m,WCP,,8200254,1994-02-01,2009-05-20,2005-12-01,2007-07-01,
BACCARO PT (Baccaro Point),43.45,-65.47,5 m,ACP,71920,8200255,2007-06-07,+,2007-06-01,+,Baccaro Point
,,,,,,,,,,,Shelburne
BACHELORS ISLAND MARINE,51.75,-99.9,256 m,WBL,71143,5040131,1994-02-01,2012-11-05,1994-07-01,2012-11-01,
BACK RIVER (AUT),66.09,-96.51,61 m,WXV,,2300MQM,1994-02-01,2004-08-31,1995-01-01,2004-12-01,
BAD LAKE IHD 102,51.32,-108.42,637 m,,,404037Q,,,1971-07-01,1986-06-01,
BADDECK,46.1,-60.75,8 m,,,8200300,,,1875-06-01,2000-01-01,
BADDECK BELL,46.1,-60.75,17 m,,,8200301,,,2000-07-01,2010-10-01,
BADGER,48.98,-56.05,101 m,,,8400300,,,1955-08-01,1967-04-01,
BADGER (AUT) (Badger),48.97,-56.07,103 m,WDI,71400,8400301,1986-12-31,+,1973-01-01,+,Badger
,,,,,,,,,,,Buchans
,,,,,,,,,,,Grand Falls-Windsor
BADGER C,48.97,-56.05,102 m,,,8400309,,,1988-09-01,1989-01-01,
BAGOTVILLE A (CFB Bagotville),48.33,-71,159 m,YBG,71727,7060400,1953-01-01,+,1942-09-01,+,Bagotville
BAIE COMEAU,49.23,-68.18,69 m,,,7040MLR,,,1966-01-01,1980-06-01,
BAIE COMEAU CBA,49.22,-68.15,8 m,,,7040445,,,1958-09-01,1966-12-01,
BAIE DES SABLES,48.7,-67.83,99 m,,,7050MM5,,,1981-06-01,2004-04-01,
BAIE JOHAN BEETZ,50.28,-62.8,8 m,,,7040MMN,,,1965-07-01,2004-04-01,
BAIE ST PAUL,47.42,-70.5,32 m,,,7040446,,,1963-01-01,2004-04-01,
BAIE VERTE,49.98,-56.18,110 m,,,8400350,,,1958-07-01,1995-06-01,
BAIE VERTE JUNCTION,49.45,-56.43,78 m,,,8400359,,,1989-09-01,1994-07-01,
BAIE WAKEHAM,61.6,-71.97,6 m,,,7110DMF,,,1966-10-01,1967-02-01,
BAIE-COMEAU,49.26,-68.15,130 m,WFW,71829,704S001,1995-05-29,+,1996-01-01,+,Baie-Comeau
,,,,,,,,,,,Forestville
BAIE-COMEAU (Baie-Comeau Airport),49.13,-68.2,22 m,YBC,71691,7040444,2010-11-15,+,2010-11-01,+,Baie-Comeau
,,,,,,,,,,,Forestville
BAIE-COMEAU A,49.13,-68.2,22 m,,,7040440,1956-07-02,2005-01-21,1947-06-01,2005-01-01,Baie-Comeau
,,,,,,,,,,,Forestville
BAIE-COMEAU A,49.13,-68.2,22 m,GBC,71890,7040442,2004-04-07,+,2005-01-01,+,Baie-Comeau
,,,,,,,,,,,Forestville
BAIRD LAKE,54.35,-114.43,671 m,,,3060472,,,1981-06-01,1997-03-01,
BAKER LAKE A (Baker Lake Airport),64.3,-96.08,19 m,YBK,,2300504,2016-01-13,+,2018-10-01,+,Baker Lake
BAKER LAKE A (Baker Lake Airport),64.3,-96.08,19 m,YBK,71926,2300500,1953-01-01,2013-11-14,1946-02-01,2013-11-01,Baker Lake
BAKER LAKE A (Baker Lake Airport),64.3,-96.08,19 m,YBK,71926,2300503,2013-11-12,+,2013-11-01,+,Baker Lake
BAKER LAKE CLIMATE,64.32,-96,51 m,XBL,71356,2300501,2004-07-01,+,2004-06-01,2021-03-01,
BAKER MINE,57.2,-126.95,1646 m,,,1180580,,,1980-11-01,1983-11-01,
BALA,45,-79.5,226 m,,,6110458,,,1883-07-01,1907-12-01,
BALACLAVA,44.67,-80.78,222 m,,,6110470,,,2006-05-01,2016-03-01,
BALCARRES,50.78,-103.62,576 m,,,4010395,,,1961-08-01,2010-03-01,
BALD MOUNTAIN LO,54.82,-118.92,939 m,,,3070480,,,1954-06-01,2011-09-01,
BALDONNEL,56.23,-120.68,686 m,,,1180585,,,1927-01-01,1993-10-01,
BALDUR,49.28,-99.29,450 m,,,5010140,,,1962-04-01,2021-03-01,
BALDUR 5 NORTHEAST,49.42,-99.17,425 m,,,5010143,,,1991-05-01,1995-07-01,
BALDWIN,44.27,-79.32,229 m,,,6110480,,,2004-12-01,2021-03-01,
BALDY HUGHES,53.62,-122.95,1128 m,,,1090586,,,1980-08-01,1984-07-01,
BALDY LO,52.55,-116.12,2083 m,,,3050490,,,1960-06-01,2011-09-01,
BALLANTRAE,44.05,-79.3,328 m,,,6150460,,,1979-07-01,1992-08-01,
BALLATER,55.58,-117.21,564 m,,,3070493,,,1990-10-01,2014-10-01,
BALLATER AGCM,55.58,-117.24,560 m,PBC,,3070495,2010-10-15,+,2018-05-01,2021-03-01,
BALLENAS ISLAND,49.35,-124.16,15 m,WGB,71769,1020590,1994-02-01,+,1966-12-01,2021-03-01,
BALM,53.92,-115.25,777 m,,,3060495,,,1969-09-01,1974-04-01,
BALTIMORE,45.88,-64.82,183 m,,,8100430,,,1982-02-01,1997-12-01,
BAMBERTON OCEAN CEMENT,48.58,-123.52,85 m,,,1010595,,,1961-02-01,1980-11-01,
BAMFIELD,48.83,-125.1,21 m,,,1030600,,,1903-02-01,1956-09-01,
BAMFIELD EAST,48.83,-125.12,4 m,,,1030605,,,1959-08-01,2001-09-01,
BAMFIELD WEST,48.83,-125.15,3 m,,,1030610,,,1955-10-01,1959-07-01,
BANANA BELT,55.2,-116.42,671 m,,,3060514,,,1971-10-01,1972-09-01,
BANCROFT,45.05,-77.85,327 m,,,6160465,,,1882-10-01,1985-12-01,
BANCROFT AUTO (Bancroft),45.07,-77.88,331 m,WRK,71294,616I001,1995-05-02,+,1995-06-01,+,Apsley
,,,,,,,,,,,Bancroft
,,,,,,,,,,,Barry's Bay
,,,,,,,,,,,Haliburton
,,,,,,,,,,,Kaladar
BANCROFT L'AMABLE,45,-77.8,347 m,,,6160468,,,1985-06-01,1986-11-01,
BANCROFT OMNR,45.05,-77.87,344 m,,,6160473,,,1987-04-01,1990-10-01,
BANFF,51.18,-115.57,1384 m,,,3050520,1953-01-01,1995-03-31,1887-11-01,1995-03-01,Banff
,,,,,,,,,,,Canmore
BANFF (AUT),51.18,-115.57,1397 m,,,3050521,1994-02-01,1997-12-02,1992-12-01,1997-12-01,
BANFF CR10,51.2,-115.55,1397 m,,,3050522,,,1996-04-01,1997-11-01,
BANFF CS (Banff),51.19,-115.55,1397 m,WZG,71122,3050519,1997-12-02,+,1995-04-01,+,Banff
,,,,,,,,,,,Canmore
BANFF SPRINGS,51.17,-115.55,1370 m,,,3050526,,,2001-09-01,2007-08-01,
BANGOR,50.9,-102.28,526 m,,,4010400,,,1951-04-01,2005-02-01,
BANGOR,46.35,-62.68,37 m,,,8300128,,,1971-12-01,2004-03-01,
BANKEIR,49.72,-120.23,1097 m,,,1120630,,,1954-08-01,1959-07-01,
BANKIER CHAIN LAKE,49.7,-120.28,1020 m,,,1120633,,,1974-05-01,1991-08-01,
BAPTISTE LAKE,54.73,-113.53,575 m,,,3060523,,,1971-11-01,2000-10-01,
BAR RIVER,46.43,-84.05,180 m,,,6050NNP,,,1988-06-01,1992-10-01,
BARCLAY,49.83,-92.82,381 m,,,6030488,,,1885-05-01,1896-11-01,
BARK LAKE,46.5,-75.33,364 m,,,7030447,,,1912-11-01,1929-10-01,
BARK LAKE DAM,45.42,-77.8,335 m,,,6100493,,,1950-01-01,1971-10-01,
BARKERVILLE,53.07,-121.51,1283 m,,,1090660,,,1888-02-01,2021-02-01,
BARNSTON,45.08,-71.88,445 m,,,7020DDP,,,1965-05-01,1982-03-01,
BARNWELL AGDM,49.8,-112.3,824 m,XBW,71346,3030525,2001-11-29,+,2002-01-01,2021-03-01,
BARONS AGCM,50.03,-113.22,967 m,PBA,71007,3030529,2006-12-30,+,2007-05-01,2021-03-01,
BARONS EXP ST,50.03,-113.17,961 m,,,3030530,,,1955-01-01,1963-03-01,
BARONS EXP ST 2,50,-112.92,960 m,,,3030531,,,1956-05-01,1960-06-01,
BARRAGE A LAC KEMPT,47.55,-74.18,421 m,,,7070448,,,1913-01-01,1970-03-01,
BARRAGE ANGLIERS,47.55,-79.24,267 m,WRC,,7080452,1996-06-21,2007-10-16,1911-02-01,2007-10-01,
BARRAGE CABONGA,47.32,-76.47,366 m,,,7080449,,,1929-08-01,1969-11-01,
BARRAGE CICONCINE,47.38,-73.03,206 m,,,7070450,,,1942-06-01,1967-03-01,
BARRAGE GOUIN,48.35,-74.1,404 m,,,7070454,,,1913-05-01,1982-12-01,
BARRAGE GOUIN S,48.35,-74.1,404 m,,,7070ME4,,,1973-06-01,1974-08-01,
BARRAGE LAC MORIN,47.65,-69.52,198 m,,,7050455,,,1942-12-01,1984-06-01,
BARRAGE MATTAWIN,46.85,-73.65,366 m,,,7070456,,,1929-11-01,1982-12-01,
BARRAGE MERCIER,46.72,-75.98,236 m,,,7030457,,,1927-01-01,1980-05-01,
BARRAGE MISTIGOUGECHE,48.18,-68.02,320 m,,,7050460,,,1961-08-01,1966-11-01,
BARRAGE MITCHINAMECUS,47.22,-75.17,390 m,,,7030462,,,1941-07-01,1967-10-01,
BARRAGE MITIS,48.33,-67.9,267 m,,,7050463,,,1926-07-01,1966-06-01,
BARRAGE MONDONAC,47.45,-73.93,457 m,,,7070464,,,1943-05-01,1966-08-01,
BARRAGE TEMISCAMINGUE (Temiskaming Dam),46.71,-79.1,181 m,WBA,71732,7080468,1997-09-24,+,1910-04-01,+,Témiscamingue
BARRAUTE,48.37,-77.65,305 m,,,7090470,,,1958-12-01,1994-05-01,
BARRETT CHUTE,45.25,-76.77,160 m,,,6100521,,,1950-05-01,1968-10-01,
BARRHEAD,54.12,-114.37,644 m,,,3060532,,,1974-10-01,1976-11-01,
BARRHEAD CS (Barrhead),54.09,-114.45,648 m,XBD,71061,3060535,2000-12-04,+,2000-12-01,+,Barrhead
BARRIE,44.4,-79.68,229 m,,,6110549,,,1866-01-01,1958-06-01,
BARRIE (AUT),44.38,-79.78,295 m,WCU,,6110552,1994-02-01,2003-12-19,1992-12-01,2003-12-01,Barrie
,,,,,,,,,,,Orillia
BARRIE BROOK,45.65,-61.43,11 m,,,8200400,,,1950-02-01,1972-01-01,
BARRIE CKVR,44.35,-79.7,312 m,,,6110555,,,1960-03-01,1961-02-01,
BARRIE LANDFILL,44.39,-79.74,305 m,,,6110556,,,2011-06-01,2021-03-01,
BARRIE WPCC,44.38,-79.69,221 m,,,6110557,,,1968-05-01,2009-06-01,
BARRIE-ORO (Lake Simcoe Regional Airport),44.48,-79.55,289 m,XBI,71314,6117700,2003-10-30,+,2003-11-01,+,Barrie
,,,,,,,,,,,Orillia
BARRIER LAKE,51.05,-115.08,2021 m,,,3050533,,,1995-05-01,2011-09-01,
BARRIERE,51.18,-120.12,415 m,,,1160670,,,1955-11-01,1996-10-01,
BARRIERE CLERMONT,47.7,-70.22,84 m,,,70404PA,,,1973-06-01,1978-07-01,
BARRIERE ETIENNICHE,49.45,-71.38,320 m,,,7060M7A,,,1973-06-01,1975-05-01,
BARRIERE JALBERT,48.45,-70.7,175 m,,,7040MGJ,,,1972-12-01,1975-03-01,
BARRIERE LOUVICOURT,47.87,-77.33,317 m,,,7090473,,,1963-01-01,1974-06-01,
BARRIERE MILOT,48.9,-71.77,168 m,,,7060DPC,,,1973-06-01,1980-09-01,
BARRIERE MISTIGOUGECHE,48.2,-68.07,312 m,,,7050M73,,,1967-10-01,1967-10-01,
BARRIERE MITIS,48.37,-67.93,236 m,,,7050MGC,,,1966-11-01,1982-03-01,
BARRIERE N CHIBOUGAMAU,49.5,-74.17,396 m,,,7060474,,,1963-02-01,1974-05-01,
BARRIERE NORTH,51.23,-120.15,389 m,,,1160673,,,1970-09-01,1984-09-01,
BARRIERE QUINN,46.72,-76.07,256 m,,,7030475,,,1963-01-01,1973-05-01,
BARRIERE ST GUILLAUME,46.6,-74.17,412 m,,,7070DP6,,,1973-01-01,1973-10-01,
BARRIERE STONEHAM,47.17,-71.25,597 m,,,7010478,,,1963-01-01,1976-03-01,
BARRIERE SUD LA DORE,48.82,-72.73,198 m,,,706047H,,,1963-02-01,1975-05-01,
BARRIERE TOURILLI,47.17,-71.62,494 m,,,7010480,,,1949-08-01,1960-09-01,
BARRINGTON CCR,43.45,-65.47,21 m,,,8200415,1994-02-01,1996-01-20,,,
BARRY'S BAY,45.43,-77.67,290 m,,,6100558,,,1976-10-01,1982-09-01,
BARVILLE,48.42,-77.47,319 m,,,7090520,,,1953-08-01,1957-08-01,
BARWICK,48.63,-93.97,335 m,,,6020559,,,1978-12-01,2021-03-01,
BAS CARAQUET (Bas Caraquet),47.8,-64.83,5 m,WXS,71598,8100467,1994-02-01,+,1993-09-01,+,Bas-Caraquet
,,,,,,,,,,,Tracadie-Sheila
BAS CARAQUET,47.8,-64.87,11 m,,,8100468,,,1982-06-01,2021-03-01,
BASELINE LO,52.13,-115.42,1897 m,,,3010534,,,1961-06-01,2011-09-01,
BASHAW,52.68,-112.87,793 m,,,3010535,,,1906-11-01,1922-10-01,
BASHAW,52.6,-112.98,800 m,,,302053E,,,1971-02-01,1975-09-01,
BASNETT,57.37,-119.82,760 m,,,3070NLN,,,1989-07-01,2011-09-01,
BASSANO AGCM,50.89,-112.47,807 m,PBS,71008,3030540,2007-09-11,+,2007-05-01,2021-03-01,
BASSANO DAM,50.78,-112.47,800 m,,,3030537,,,1914-11-01,1935-12-01,
BASSANO GEM,50.9,-112.2,751 m,,,3030538,,,1916-05-01,1935-12-01,
BASSET LO,58.2,-118.22,755 m,,,30705LQ,,,1966-05-01,2011-08-01,
BASSWOOD,50.25,-100.03,583 m,,,5040146,,,1992-10-01,1996-08-01,
BATHURST,47.62,-65.65,12 m,,,8100500,,,1872-07-01,1972-01-01,
BATHURST,47.62,-65.65,5 m,,,8100502,,,1964-07-01,1992-06-01,Bathurst
BATHURST A (Bathurst Airport),47.63,-65.75,59 m,ZBF,71574,8100503,1994-02-01,2013-10-10,1992-07-01,2013-10-01,Bathurst
BATHURST A (Bathurst Airport),47.63,-65.74,59 m,ZBF,71574,8100506,2016-01-13,+,2018-10-01,+,Bathurst
BATHURST A (Bathurst Airport),47.63,-65.74,59 m,ZBF,,8100505,2013-09-10,2018-08-14,2013-08-01,2018-10-01,Bathurst
BATHURST INLET,66.83,-108.02,13 m,,,2300550,,,1958-02-01,1962-08-01,
BATHURST INLET,66.84,-108.01,5 m,NBI,71874,2300551,2012-08-07,+,2012-08-01,2021-03-01,
BATHURST ISLAND,75.72,-98.42,3 m,,,2400552,,,1971-05-01,1979-08-01,
BATTLE CREEK LO,49.65,-109.98,1311 m,,,3.03E+42,,,1974-07-01,1978-09-01,
BATTLE HARBOUR,52.28,-55.58,15 m,,,8500395,,,1947-09-01,1983-06-01,
BATTLE HARBOUR LOR,52.25,-55.6,9 m,,,8500398,1957-10-01,1983-10-17,1957-10-01,1983-10-01,
BATTLE HARBOUR MARYS R,52.32,-55.83,6 m,,,8500400,,,1956-12-01,1983-05-01,
BATTLE HEADWATERS,52.93,-114.2,654 m,,,3010540,,,2003-09-01,2007-11-01,
BATTLE ISLAND,48.75,-87.55,197 m,WMF,,6046285,1994-08-08,1997-01-06,,,
BATTLE RIVER LO,57.48,-117.65,732 m,,,3070540,,,1955-05-01,2011-09-01,
BATTLEFORD,52.68,-108.33,494 m,,,4040420,,,1879-11-01,1942-03-01,
BATTLEFORDS UNION HOSPITAL SNOW,52.77,-108.29,529 m,,,4040430,,,2007-10-01,2008-04-01,
BAY D'ESPOIR 1,47.88,-55.83,11 m,,,8400411,,,1965-03-01,1965-04-01,
BAY D'ESPOIR 2,47.98,-55.8,23 m,,,8400412,,,1965-06-01,1967-07-01,
BAY D'ESPOIR GEN STN,47.98,-55.8,23 m,,,8400413,,,1967-11-01,2019-11-01,
BAY D'ESPOIR LONG POND,47.98,-55.82,169 m,,,8400414,,,1982-08-01,1997-04-01,
BAY D'ESPOIR ST ALBANS,47.97,-55.85,230 m,,,8400415,,,1966-02-01,1968-10-01,
BAYNES LAKE KOOTENAY RIVER,49.23,-115.22,800 m,,,1150690,,,1986-02-01,2017-09-01,
BAYSWATER,44.5,-64.08,31 m,,,8200437,,,1990-12-01,1994-10-01,
BEACON HILL,54.34,-109.63,533 m,,,4060452,,,1983-02-01,2017-07-01,
BEAR CREEK,48.5,-124,351 m,,,1010720,,,1910-11-01,1971-08-01,
BEAR ISLAND,46.98,-80.08,294 m,,,6080577,,,1916-05-01,1962-05-01,
BEAR RIVER,44.57,-65.63,8 m,,,8200500,,,1952-11-01,2006-02-01,
BEAR TOWER,60.52,-113.23,213 m,,,2200554,,,1989-05-01,1990-08-01,
BEARBERRY,51.9,-114.87,1158 m,,,3020550,,,1969-10-01,1970-02-01,
BEARDMORE,49.62,-87.95,305 m,,,6040572,,,1973-11-01,1986-10-01,Greenstone (Beardmore)
BEARSKIN LAKE,58.22,-132.27,958 m,,,1200730,,,1983-11-01,1990-01-01,
BEARTOOTH ISLAND,59.22,-109.7,238 m,WTF,,4060468,1994-02-01,2001-07-11,1994-12-01,2015-02-01,
BEATRICE,45.13,-79.38,290 m,,,6110605,,,1876-03-01,1979-02-01,
BEATRICE 2,45.13,-79.4,297 m,,,6110606,,,1979-09-01,2008-09-01,
BEATRICE CLIMATE,45.14,-79.4,297 m,TBT,71694,6110607,2005-09-28,+,2005-09-01,+,Muskoka
BEATTON RIVER,57.22,-121.47,808 m,,,1180749,,,1977-04-01,1979-08-01,
BEATTON RIVER A,57.38,-121.38,840 m,,,1180750,1953-01-01,1967-07-11,1944-12-01,1967-07-01,
BEATTY,52.87,-104.85,451 m,,,4050480,,,1953-10-01,1956-08-01,
BEAUCEVILLE (Beauceville),46.21,-70.79,229 m,WHV,71323,7028754,1994-07-28,+,1994-07-01,+,Beauceville
,,,,,,,,,,,Lac-Mégantic
,,,,,,,,,,,Saint-Georges
BEAUCEVILLE,46.2,-70.77,160 m,,,7020560,,,1913-08-01,1985-01-01,
BEAUHARNOIS,45.32,-73.91,22 m,MBR,,7020564,2003-10-07,2006-07-26,,,
BEAUHARNOIS,45.17,-73.92,34 m,WBH,,7020562,1994-04-04,1994-10-31,,,
BEAUPORT,46.88,-71.2,84 m,,,7010566,,,1982-07-01,1985-05-01,
BEAUPORT (Beauport),46.84,-71.2,10 m,XBO,71578,7010565,1999-08-19,+,1999-08-01,+,Lévis
BEAUSEJOUR,50.13,-96.22,302 m,,,5030155,1959-11-02,1985-12-31,1960-03-01,1979-11-01,
BEAUSEJOUR,46.67,-71.17,107 m,,,7020567,,,1975-08-01,2020-04-01,
BEAUSEJOUR 2,50.03,-96.47,251 m,,,5030160,,,1953-05-01,2005-03-01,
BEAUSOLEIL,44.85,-79.87,183 m,WPB,,6110617,1994-02-01,2007-08-28,1994-12-01,2007-08-01,
BEAUVAIS PARK,49.42,-114.1,1524 m,,,3030555,,,1998-02-01,2007-11-01,
BEAVER,50.02,-98.7,263 m,,,5040165,,,1887-06-01,1907-10-01,
BEAVER,50.05,-98.7,268 m,,,5040166,,,1973-05-01,2021-02-01,
BEAVER CREEK,51.97,-106.7,488 m,,,4050500,,,1992-05-01,2000-02-01,
BEAVER CREEK A (Beaver Creek Airport),62.41,-140.87,650 m,YXQ,,2100159,2014-12-04,+,,,Beaver Creek
BEAVER CREEK A (Beaver Creek Airport),62.41,-140.87,650 m,YXQ,,2100155,2014-12-04,+,2018-10-01,+,Beaver Creek
BEAVER CREEK A (Beaver Creek Airport),62.41,-140.87,649 m,YXQ,,2100160,1968-12-01,2014-12-04,1968-11-01,2015-02-01,Beaver Creek
BEAVER CREEK YTG,62.37,-140.87,663 m,,,2100161,,,1993-09-01,2008-08-01,
BEAVER HILLS WEST,53.53,-112.53,770 m,,,3010558,,,1897-12-01,1908-11-01,
BEAVER ISLAND (AUT) (Beaver Island),44.82,-62.33,16 m,WBV,71403,8200558,1994-02-01,+,1992-12-01,+,Beaver Island
BEAVER LAKE,48.5,-123.35,61 m,,,1010774,,,1894-12-01,1952-06-01,
BEAVER LAKE RS,54.75,-112.95,564 m,,,3060559,,,1980-06-01,1995-10-01,
BEAVER MINES,49.47,-114.18,1257 m,,,3050600,,,1912-11-01,2012-03-01,
BEAVER MINES,49.47,-114.18,1257 m,PBM,71304,3050602,2012-02-02,+,2012-02-01,2021-03-01,
BEAVERBANK,44.9,-63.72,183 m,,,8200550,,,1871-09-01,1964-03-01,
BEAVERDELL,49.42,-119.11,780 m,,,1130770,,,1925-09-01,2000-10-01,
BEAVERDELL NORTH,49.48,-119.05,838 m,,,1130771,,,1975-05-01,2006-09-01,
BEAVERLODGE CDA,55.2,-119.4,745 m,,,3070560,,,1913-04-01,2007-05-01,
BEAVERLODGE CDA,55.2,-119.4,745 m,,,3.07E+13,1996-08-16,2002-01-18,1996-08-01,2002-01-01,
BEAVERLODGE RCS (Beaverlodge),55.2,-119.4,745 m,WBM,71230,3070600,2001-02-14,+,2001-01-01,+,Beaverlodge
BEAVERLODGE REDLOW,55.33,-119.4,427 m,,,3070565,,,1912-01-01,1930-06-01,
BEAVERTON,44.42,-79.15,230 m,,,6110633,,,1948-03-01,1959-08-01,
BECANCOUR,46.33,-72.43,15 m,,,7020570,,,1966-10-01,1994-05-01,
BECHARD,50.05,-104.22,578 m,,,4010540,,,1974-05-01,1982-01-01,
BECHER BAY,48.33,-123.63,12 m,,,1010780,,,1956-12-01,1966-04-01,
BEDE,49.37,-100.93,442 m,,,5010180,,,1956-10-01,1977-07-01,
BEDFORD,44.73,-63.67,31 m,,,8200575,,,1954-12-01,1966-05-01,
BEDFORD BASIN,44.71,-63.63,4 m,ABB,71329,8200573,2004-01-17,+,2018-05-01,2021-03-01,
BEDFORD MWO,44.73,-63.67,33 m,WAZ,,8200576,1995-03-22,1998-09-09,,,
BEDFORD RANGE,44.75,-63.66,10 m,ABR,71325,8200574,2004-09-24,+,2018-05-01,2021-03-01,
BEECHWOOD,46.53,-67.67,91 m,,,8100512,,,1966-04-01,1997-04-01,
BEECHY,50.83,-107.31,660 m,,,4020560,,,1926-01-01,2021-03-01,
BEETON,44.1,-79.78,233 m,,,6110661,,,1916-11-01,1970-01-01,
BEETON ASSAGI,44.12,-79.77,221 m,,,6110662,,,1975-03-01,1976-11-01,
BEETON GRAHAM,44.08,-79.78,229 m,,,6110663,,,1971-09-01,1984-12-01,
BEETON WATSON,44.07,-79.85,252 m,,,6110667,,,1968-04-01,1971-07-01,
BEISEKER AGCM,51.38,-113.36,896 m,PBE,71009,3020610,2007-09-11,+,2007-05-01,2021-03-01,
BEISEKER VILLAGE,51.38,-113.53,916 m,,,3020608,,,1984-12-01,1985-10-01,
BELGRAVE,43.8,-81.38,335 m,,,6120670,,,1962-04-01,1964-12-01,
BELL FALLS,45.77,-74.68,122 m,,,7030640,,,1919-01-01,1994-05-01,
BELLA BELLA,52.17,-128.15,12 m,,,1060810,,,1933-04-01,1977-10-01,
BELLA BELLA (Bella Bella Airport),52.19,-128.16,43 m,BBC,71582,1060815,2011-08-22,+,2011-08-01,+,Bella Bella
BELLA BELLA A,52.19,-128.16,43 m,,,1060811,2007-01-31,2011-08-25,2006-04-01,2011-08-01,
BELLA BELLA SHEARWATER,52.15,-128.08,12 m,,,1060820,,,1960-04-01,1964-06-01,
BELLA COOLA,52.37,-126.69,18 m,,,1060840,,,1895-05-01,2002-10-01,
BELLA COOLA A (Bella Coola Airport),52.39,-126.6,36 m,YBD,71206,1060841,1983-02-01,2013-08-15,1983-02-01,2017-11-01,Bella Coola
BELLA COOLA A (Bella Coola Airport),52.39,-126.6,36 m,YBD,,1060845,2013-08-15,+,,,Bella Coola
BELLA COOLA A (Bella Coola Airport),52.39,-126.6,36 m,YBD,,1060848,2014-10-23,+,2018-10-01,+,Bella Coola
BELLA COOLA AIRPORT,52.39,-126.59,37 m,VBD,71533,1060844,2015-11-26,+,2015-12-01,2021-03-01,
BELLA COOLA BC HYDRO,52.37,-126.82,14 m,,,1060842,,,1961-08-01,1985-11-01,
BELLE ISLE,51.88,-55.38,130 m,,,8500500,1953-01-01,1969-12-31,1871-08-01,1969-12-01,
BELLE PLAGE,48.68,-74.02,412 m,,,7070595,,,1975-06-01,1985-09-01,
BELLE PLAINE,50.45,-105.2,582 m,,,4010568,,,1978-10-01,1983-10-01,
BELLE RIVER,42.3,-82.7,184 m,WDD,,6130681,1994-02-01,2005-03-07,1994-12-01,2005-03-01,
BELLEDUNE,47.9,-65.83,8 m,,,8100514,,,1971-01-01,1990-06-01,
BELLEDUNE CS,47.9,-65.83,8 m,,,8100515,,,1991-11-01,2002-08-01,
BELLETERRE,47.38,-78.7,322 m,,,7080600,,,1951-09-01,2004-04-01,
BELLEVILLE,44.15,-77.39,76 m,,,6150689,,,1866-01-01,2021-03-01,
BELLEVILLE OWRC,44.17,-77.37,78 m,,,6150700,,,1959-09-01,1975-08-01,
BELLEVILLE PAR LAB,44.17,-77.35,88 m,,,6150717,,,1929-08-01,1959-06-01,
BELLIS,54.18,-112.17,686 m,,,3010615,,,1961-07-01,1969-11-01,
BELLIS,54.13,-112.15,661 m,,,3010616,,,1979-11-01,1992-09-01,
BELLROCK,44.48,-76.77,146 m,,,6100720,,,1957-05-01,1978-08-01,
BELLS CORNERS,45.33,-75.82,75 m,,,6100722,,,1991-05-01,1991-05-01,
BELLSHILL AGCM,52.58,-111.47,721 m,PBL,71010,3010650,2007-06-27,+,2007-06-01,2021-03-01,
BELMONT,49.4,-99.43,447 m,,,5010190,,,1891-11-01,1906-07-01,
BELMONT,49.3,-99.45,482 m,,,5010191,,,1984-08-01,2016-10-01,
BENALTO,52.3,-114.27,964 m,,,3020620,,,1962-07-01,1963-07-01,
BENGOUGH,49.38,-105.13,689 m,,,4030569,,,1982-12-01,1997-10-01,
BENNETT,59.85,-134.98,662 m,,,1200847,,,1972-09-01,1974-07-01,
BENNY,46.52,-81.63,387 m,,,6060725,,,1948-11-01,1956-09-01,
BENSON,49.45,-102.98,588 m,,,4010570,,,1973-05-01,2006-01-01,
BENSON LAKE,50.37,-127.23,145 m,,,1030850,,,1959-06-01,1972-12-01,
BENTON,48.9,-54.42,48 m,,,8400505,,,1988-07-01,1993-12-01,
BERENS RIVER,52.35,-97.03,217 m,,,5030200,,,1905-01-01,1964-12-01,
BERENS RIVER A (Berens River Airport),52.36,-97.02,222 m,YBV,,5030204,2015-01-15,+,2018-10-01,+,Berens River
,,,,,,,,,,,Bloodvein
BERENS RIVER A (Berens River Airport),52.36,-97.02,222 m,YBV,,5030201,2015-01-15,+,,,Berens River
,,,,,,,,,,,Bloodvein
BERENS RIVER A (Berens River Airport),52.36,-97.02,222 m,YBV,,5030202,1995-11-20,2015-01-15,,,Berens River
,,,,,,,,,,,Bloodvein
BERENS RIVER CS,52.36,-97.02,222 m,WCF,71158,5030203,1985-05-14,+,1985-07-01,2021-03-01,
BERGLAND,48.95,-94.35,364 m,,,6020727,,,1980-01-01,1981-08-01,
BERLAND LO,54.08,-117.4,1231 m,,,3060630,,,1958-05-01,2011-09-01,
BERNARD HARBOUR,68.78,-114.83,65 m,,,2300555,1992-12-31,1993-04-27,1959-01-01,1993-02-01,
BERNARD HARBOUR,68.76,-114.94,62 m,PIN,73231,2300556,2021-02-19,+,2021-02-01,+,
BERNY,54.75,-112.35,579 m,,,3060633,,,1981-05-01,1981-05-01,
BERRY CREEK,51.02,-111.03,732 m,,,3020636,,,1982-05-01,1990-10-01,
BERRY MOUNTAIN,48.67,-66.15,152 m,,,7050675,,,1963-01-01,1972-03-01,
BERRYS BAY,43.66,-65.26,7 m,,,8200577,,,1998-06-01,2001-03-01,
BERRYTON,45.92,-64.88,107 m,,,8100516,,,1964-07-01,1965-12-01,
BERSIMIS,48.97,-68.62,46 m,,,7040680,,,1923-07-01,1961-09-01,
BERSIMIS S,48.95,-68.65,18 m,,,7040690,,,1973-06-01,1973-08-01,
BERTHIERVILLE,46.05,-73.18,12 m,,,7010720,,,1919-08-01,1995-05-01,
BERTRAND,47.75,-65.07,23 m,,,8100518,,,1964-02-01,2011-12-01,
BERTWELL,52.6,-102.57,518 m,,,4080580,,,1958-06-01,1958-10-01,
BERWICK,45.08,-64.73,40 m,,,8200578,,,1994-06-01,2015-09-01,
BERWYN,56.15,-117.75,655 m,,,3070640,,,1921-01-01,1958-11-01,
BERWYN CDA,56.15,-117.68,626 m,,,3070642,,,1975-10-01,1993-03-01,
BETHANIE,45.5,-72.43,198 m,,,7020750,,,1968-06-01,1985-01-01,
BGE C LAC CHATEAUVERT,47.77,-73.9,383 m,,,7070451,,,1942-11-01,1982-11-01,
BIC,48.37,-68.7,18 m,,,7050760,,,1882-06-01,1968-07-01,
BIC,48.4,-68.67,23 m,,,7050762,,,1966-10-01,1985-01-01,
BICKLEIGH,51.29,-108.41,676 m,,,4040587,,,1988-12-01,2021-03-01,
BIG BALD MOUNTAIN,47.2,-66.43,,,,8100525,,,1935-06-01,1946-07-01,
BIG BAY,55.74,-60.43,280 m,,,8500535,1992-12-31,1993-04-27,,,
BIG BAY,55.74,-60.43,250 m,LAB,73234,8500536,2021-03-01,+,2021-03-01,+,
BIG BEAVER,49.02,-105.02,743 m,,,4030594,,,1985-05-01,1989-08-01,
BIG CHAUDIERE FALLS,46.15,-80.02,,,,6080729,,,1918-05-01,1933-04-01,
BIG CHUTE,44.88,-79.67,191 m,,,6110731,,,1913-05-01,1972-01-01,
BIG COULEE,49.75,-113.8,1325 m,,,3030665,,,1980-10-01,1985-05-01,
BIG CREEK,51.67,-123.07,1175 m,,,1080870,,,1893-01-01,1998-11-01,
BIG CREEK (AUT),51.26,-123.09,1670 m,WBG,71760,10808G0,1994-10-03,2003-03-25,1995-05-01,2011-09-01,
BIG INTERVALE,46.83,-60.62,40 m,,,8200579,,,1984-09-01,1992-12-01,
BIG OLIVER CREEK,54.83,-128.3,122 m,,,1070873,,,1973-06-01,1975-05-01,
BIG RIVER,53.83,-107.03,503 m,,,4060620,,,1957-01-01,1998-11-01,
BIG RIVER EXP ST,53.85,-107,485 m,,,4060628,,,1951-06-01,1956-11-01,
BIG STONE,51.17,-111.2,774 m,,,3020676,,,1982-05-01,2000-01-01,
BIG STONE LOCKHART,51.2,-111.12,789 m,,,3020670,,,2002-01-01,2004-11-01,
BIG THUNDER,48.28,-89.38,299 m,,,604I261,1995-01-20,1995-03-20,,,
BIG TROUT LAKE,53.83,-89.87,224 m,,,6010738,1953-01-01,1992-10-12,1939-02-01,1992-10-01,
BIG TROUT LAKE,53.82,-89.89,223 m,OTL,71208,6010740,2012-09-28,+,2012-10-01,2021-03-01,
BIG TROUT LAKE A (Big Trout Lake Airport),53.82,-89.9,223 m,YTL,71675,6010735,2011-10-17,+,2011-10-01,+,Big Trout Lake
,,,,,,,,,,,Sachigo Lake
,,,,,,,,,,,Wunnummin Lake
BIG TROUT LAKE READAC,53.82,-89.9,222 m,TBL,,6010739,1994-02-01,2013-12-12,1992-12-01,2013-12-01,
BIG VALLEY,50.47,-99.45,381 m,,,5040214,,,1977-08-01,1978-06-01,
BIG VALLEY,52.03,-112.75,829 m,,,3020677,,,1970-05-01,1986-11-01,
BIG VALLEY AGCM,52,-112.8,870 m,PBV,71011,3020679,2007-09-11,+,2007-09-01,2021-03-01,
BIG VALLEY WEST,52.03,-112.97,793 m,,,3020678,,,1980-11-01,1983-03-01,
BIG WHITE,49.73,-118.93,1841 m,,,1130874,,,1981-02-01,1999-04-01,
BIG WHITE MTN LODGE,49.73,-118.93,1844 m,,,1130875,,,1965-03-01,1968-06-01,
BIGGAR,52.07,-107.98,671 m,,,4040600,,,1917-04-01,2005-03-01,
BIGHORN DAM,52.32,-116.33,1341 m,,,30506GN,,,1969-10-01,2010-09-01,
BILLINGS,49.02,-118.23,519 m,,,1140876,,,1984-11-01,2021-03-01,
BINBROOK,43.12,-79.83,206 m,,,6130740,,,1967-02-01,1970-03-01,
BINDLOSS,50.68,-110.17,640 m,,,3020680,,,1948-05-01,1959-09-01,
BINDLOSS EAST,50.89,-110.2,636 m,,,3020690,,,1980-08-01,2008-02-01,
BINDLOSS EXP ST,50.87,-110.18,642 m,,,3020696,,,1954-05-01,1955-12-01,
BINGHAM CHUTE,46.08,-79.4,242 m,,,6110745,,,1933-02-01,1970-05-01,
BINSCARTH,50.58,-101.27,526 m,,,5010216,,,1973-05-01,2005-10-01,
BIRCH HILLS,53,-105.48,460 m,,,4050675,,,1983-12-01,1984-06-01,
BIRCH LAKE,53.38,-111.77,689 m,,,3010698,,,1987-07-01,1988-11-01,
BIRCH MOUNTAIN LO,57.72,-111.85,853 m,,,3060700,,,1960-06-01,2011-08-01,
BIRCH MOUNTAIN TOWER,58.1,-112.15,731 m,,,3070701,,,1976-06-01,1990-08-01,
BIRCH RIVER,52.52,-100.92,268 m,,,5040218,,,1970-06-01,2000-10-01,
BIRCHBANK,49.17,-117.72,469 m,,,1140877,,,1924-01-01,1945-05-01,
BIRCHTON,45.37,-71.67,,,,7020785,,,1973-01-01,1981-12-01,
BIRCHTOWN,45.45,-61.48,69 m,,,8200581,,,1958-06-01,1977-12-01,
BIRD,56.5,-94.2,87 m,,,5060220,1957-10-01,1963-12-31,1957-10-01,1963-12-01,
BIRD ROCKS,47.85,-61.13,32 m,,,7050790,,,1881-01-01,1934-09-01,
BIRDS HILL NURSERY,49.98,-96.83,256 m,,,5020222,,,1969-08-01,1969-10-01,
BIRDS HILL PINE RIDGE,49.98,-96.93,238 m,,,5020224,,,1988-05-01,1992-11-01,
BIRDTAIL,50.82,-100.92,578 m,,,5010227,,,1989-06-01,1995-07-01,
BIRKENHEAD LAKE,50.57,-122.65,715 m,,,1110Q78,,,1983-07-01,1985-07-01,
BIRNIE,50.5,-99.48,433 m,,,5040230,,,1979-04-01,1983-09-01,
BIRSAY,51.15,-106.88,590 m,,,4020700,,,1970-05-01,1971-09-01,
BIRSAY,51.08,-106.97,594 m,,,4020701,,,1972-05-01,1981-02-01,
BIRTLE,50.43,-101.05,522 m,,,5010240,,,1883-02-01,2000-11-01,
BISCOTASING,47.3,-82.1,407 m,,,6060773,,,1914-01-01,2000-10-01,
BISHOPRIC,50,-105.78,680 m,,,4020720,,,1947-11-01,1975-07-01,
BISHOPS FALLS,49.02,-55.5,21 m,,,8400549,,,1988-02-01,1993-06-01,
BISHOPS FALLS,49.02,-55.47,9 m,,,8400550,,,1955-10-01,1962-03-01,
BISHOPS FALLS PEAT MINE,49.05,-55.42,15 m,,,8400552,,,1980-02-01,1984-07-01,
BISHOPTON,45.58,-71.57,213 m,,,7020800,,,1948-05-01,1996-05-01,
BISMARK,52.73,-113.87,,,,3020702,,,1906-11-01,1916-06-01,
BISON LO,57.12,-116.5,732 m,,,3070703,,,1963-04-01,2011-08-01,
BISSETT,50.97,-95.63,,,,5030280,,,1933-02-01,1952-01-01,
BISSETT,51.03,-95.7,259 m,,,5030282,1968-11-01,1985-03-31,1968-11-01,1997-06-01,
BISTCHO LAKE (F5),59.92,-118.95,576 m,,,307A010,,,1999-04-01,2004-09-01,
BITTERN CREEK,53.98,-105.87,518 m,,,4060760,,,1953-06-01,1956-08-01,
BITTERN LAKE,53.07,-113,745 m,,,3010704,,,1907-02-01,1926-10-01,
BITUMONT LO,57.37,-111.53,349 m,,,3060705,,,1962-05-01,2008-08-01,
BLACK CREEK,49.85,-125.13,46 m,,,1020880,,,1964-04-01,2008-12-01,
BLACK CREEK SE,49.8,-125.09,88 m,,,1020881,,,2006-08-01,2016-02-01,
BLACK DIAMOND (Black Diamond),50.71,-114.15,1156 m,PBD,71982,3030680,2008-12-04,+,2008-12-01,+,Okotoks
BLACK DUCK,48.57,-58.37,35 m,,,8400570,,,1981-09-01,2004-08-01,
BLACK LAKE,46.05,-71.37,263 m,,,7020808,,,1961-09-01,1962-09-01,
BLACK RIVER,46.13,-61.33,107 m,,,8200584,,,1973-06-01,1975-01-01,
BLACK STURGEON LAKE,49.32,-88.85,253 m,,,6040785,,,1951-05-01,1968-08-01,
BLACK STURGEON LAKE 2,49.3,-88.8,253 m,,,6040786,,,1968-12-01,1971-08-01,
BLACK STURGEON RIVER,49.07,-88.62,220 m,,,6040790,,,1957-10-01,1959-05-01,
BLACK TOP RIDGE (AUT),80,-85.42,619 m,WQN,,2400559,1983-04-29,1986-11-19,,,
BLACKCOMB BASE SLIDING CENTER,50.1,-122.94,937 m,VOI,71756,1100881,2007-04-30,2018-05-14,2007-04-01,2018-05-01,
BLACKCOMB BASE SLIDING CENTRE BOTTOM,50.11,-122.94,817 m,VON,,1100882,2008-12-16,2010-03-10,2008-12-01,2010-03-01,
BLACKCOMB MOUNTAIN 1540,50.1,-122.92,1540 m,,,1100Q7Q,,,1983-12-01,1994-05-01,
BLACKCOMB MOUNTAIN 1860,50.1,-122.92,1861 m,,,1100879,,,1980-11-01,1994-05-01,
BLACKDOME MOUNTAIN,51.32,-122.5,1898 m,,,1080QQ0,,,1986-08-01,1991-10-01,
BLACKIE,50.73,-113.6,1067 m,,,3030GAA,,,1970-04-01,1972-07-01,
BLACKIE 2W,50.6,-113.68,1024 m,,,3030GJJ,,,1972-07-01,1982-02-01,
BLACKIE AGCM,50.55,-113.64,1019 m,PXC,,3030690,2012-11-07,+,2018-05-01,2021-03-01,
BLACKIE NORTH,50.77,-113.67,1067 m,,,3030GJ1,,,1972-06-01,1977-07-01,
BLACKIE NW,50.77,-113.77,1067 m,,,3030PAJ,,,1977-07-01,1977-10-01,
BLACKSTOCK,44.1,-78.83,291 m,,,6150790,,,2001-06-01,2016-08-01,
BLACKSTONE LO,52.78,-116.35,1570 m,,,3010712,,,1965-06-01,2011-09-01,
BLACKSTRAP,51.78,-106.4,536 m,,,4050768,,,1974-11-01,1981-02-01,
BLACKWATER CREEK,55.53,-123.65,732 m,,,1180881,,,1989-10-01,1997-08-01,
BLAINE LAKE,52.77,-106.9,518 m,,,4050770,,,1983-05-01,1983-10-01,
BLAIRMORE HQTS RS,49.62,-114.43,1311 m,,,30507AC,,,1971-06-01,1999-10-01,
BLAKEBURN,49.48,-120.73,1485 m,,,1120882,,,1973-10-01,1973-11-01,
BLANC SABLON,51.42,-57.2,8 m,,,7040811,,,1965-09-01,1975-10-01,
BLANC SABLON,51.42,-57.22,19 m,,,7040812,1967-08-24,1982-08-31,1967-08-01,1982-07-01,Blanc-Sablon
,,,,,,,,,,,L'Anse-au-Loup
BLANC-SABLON A (AUT) (Blanc-Sablon Airport),51.45,-57.18,37 m,YBX,71808,704S004,,,2008-07-01,2008-07-01,Blanc-Sablon
,,,,,,,,,,,L'Anse-au-Loup
BLANCHARD RIVER,60,-136.77,836 m,,,2100163,,,1986-11-01,2012-06-01,
BLANCHE,45.75,-75.33,213 m,,,7030810,,,1974-10-01,1994-05-01,
BLENHEIM,42.67,-82.02,205 m,,,6120795,,,1883-04-01,1897-11-01,
BLENHEIM 1,42.31,-82.03,200 m,,,6130815,,,2006-05-01,2009-12-01,
BLIND CHANNEL,50.42,-125.5,3 m,,,1020885,,,1956-05-01,1993-12-01,
BLIND RIVER,46.2,-83,183 m,,,6050801,,,1926-04-01,1959-10-01,
BLIND RIVER HYDRO CENTRE,46.2,-83.02,189 m,,,6050805,,,1982-06-01,1989-11-01,
BLINDMAN,52.77,-114.48,960 m,,,3020715,,,1963-06-01,1992-08-01,
BLISSVILLE,45.62,-66.55,22 m,,,8100550,,,1940-01-01,1951-04-01,
BLOOD INDIAN CREEK,50.92,-111.07,640 m,,,3020717,,,1982-05-01,1993-05-01,
BLOOD TRIBE AGDM,49.57,-113.05,980 m,PBT,71517,3030720,2004-06-16,+,2004-06-01,2021-03-01,
BLOOMFIELD,43.98,-77.22,91 m,,,6150815,,,1896-04-01,2014-02-01,
BLOOMFIELD WEST,43.98,-77.25,90 m,,,6150816,,,1966-07-01,1997-04-01,
BLOUGH LAKE,51.75,-68.33,,,,7040814,,,1956-07-01,1956-09-01,
BLUE ACTON,43.6,-80.05,366 m,,,6150HA7,,,1974-05-01,1976-03-01,
BLUE CORWHIN,43.53,-80.12,351 m,,,6140Q17,,,1974-05-01,1976-03-01,
BLUE MOUNTAIN,45.48,-62.42,213 m,,,8200587,,,1956-07-01,1957-01-01,
BLUE MOUNTAIN TOWER,47.8,-66.3,160 m,,,8100558,,,1935-06-01,1951-06-01,
BLUE RIVER A (Blue River Airport),52.12,-119.29,690 m,YCP,,1160898,2015-01-15,+,,,Blue River
BLUE RIVER A (Blue River Airport),52.12,-119.29,690 m,YCP,,1160902,2015-01-15,+,2018-10-01,+,Blue River
BLUE RIVER A (Blue River Airport),52.13,-119.29,690 m,YCP,,1160899,1969-12-01,2015-01-15,1969-12-01,+,Blue River
BLUE RIVER CS,52.13,-119.29,683 m,WSV,71883,1160H99,1993-10-31,+,1992-12-01,2021-03-01,
BLUE RIVER NORTH,52.15,-119.28,689 m,,,1160900,,,1929-01-01,1985-09-01,
BLUE ROCKWOOD,43.58,-80.12,351 m,,,6140QAG,,,1974-06-01,1976-03-01,
BLUE SCOUT,43.62,-80.08,343 m,,,6140QJ7,,,1974-05-01,1976-03-01,
BLUE SPRINGS CREEK,43.63,-80.12,373 m,,,6140818,,,1966-07-01,1980-07-01,
BLUEBERRY CREEK,55.92,-119,622 m,,,3070718,,,1993-05-01,1996-05-01,
BLUEBERRY MTN CDA EPF,55.93,-119.13,732 m,,,3070720,,,1955-03-01,1972-12-01,
BLUEHILL LO,51.7,-115.22,1951 m,,,3050725,,,1962-05-01,2011-09-01,
BLUFFTON,52.75,-114.28,908 m,,,3020730,,,1963-06-01,1984-05-01,
BLUMENHOF,50.03,-107.77,899 m,,,4020772,,,1986-05-01,1991-04-01,
BLYTH,43.72,-81.38,351 m,,,6120819,,,1959-02-01,2010-01-01,
BOAT BLUFF,52.64,-128.52,11 m,WZM,,1060901,1994-02-01,2001-12-13,1974-06-01,2021-03-01,
BOAT HARBOUR,47.43,-54.84,15 m,,,8400578,,,1982-12-01,2009-12-01,
BOB CREEK,49.88,-114.25,1372 m,,,3050731,,,1971-10-01,1983-03-01,
BOB QUINN,56.98,-130.25,579 m,,,1200R0A,,,1974-09-01,1974-10-01,
BOB QUINN AGS,56.97,-130.25,610 m,BW4,,1200R0J,,,1977-12-01,1994-04-01,
BOB QUINN LAKE 2,56.97,-130.25,610 m,,,120090J,,,1991-09-01,1991-09-01,
BOBBIE BURNS,50.95,-116.93,1370 m,,,1170R01,,,1981-02-01,2001-12-01,
BOBCAYGEON,44.52,-78.62,260 m,,,6160820,,,1986-04-01,1993-01-01,
BOBCAYGEON,44.58,-78.52,248 m,,,6160822,,,1981-06-01,1985-08-01,
BODO AGDM,52.12,-110.1,687 m,XBA,71214,3010730,1995-02-21,+,2002-11-01,2021-03-01,
BOGGY CREEK,51.54,-101.39,609 m,,,5010310,,,1977-07-01,2014-06-01,
BOGNOR,44.67,-80.83,250 m,,,6110823,,,1883-04-01,1900-09-01,
BOISSEVAIN,49.23,-100.05,511 m,,,5020320,,,1912-04-01,1981-03-01,
BOISSEVAIN 2,49.22,-100.08,526 m,,,5020321,,,1948-11-01,1970-03-01,
BOLTON NORTH,43.92,-79.75,261 m,,,615S004,,,1995-10-01,2001-09-01,
BOLTON SPS,43.88,-79.73,213 m,,,6150825,,,1978-06-01,1992-02-01,
BON ACCORD,46.65,-67.58,450 m,,,8100566,,,1966-07-01,2011-08-01,
BON CONSEIL EXP ST,46,-72.4,76 m,,,7020820,,,1960-04-01,1960-11-01,
BONANZA CREEK,63.97,-139.35,396 m,,,2100164,,,1975-05-01,1976-06-01,
BONAVENTURE,48.05,-65.48,20 m,,,7050817,,,1917-11-01,1948-06-01,
BONAVISTA,48.67,-53.11,26 m,WVA,,8400600,1959-11-17,2006-06-26,1956-12-01,2006-06-01,
BONAVISTA (Bonavista),48.67,-53.11,26 m,AVA,71178,8400601,2006-01-23,+,2006-07-01,+,Bonavista
BONFIELD,46.22,-79.13,265 m,,,6080HB6,,,1983-09-01,1992-02-01,
BONILLA ISLAND,53.49,-130.64,16 m,WVB,,1060902,1994-02-01,2001-12-13,1960-04-01,2021-03-01,
BONILLA ISLAND (AUT),53.49,-130.64,13 m,WWL,71484,1060R0K,1994-02-01,+,1994-12-01,2021-03-01,
BONNARD,50.73,-71.05,506 m,,,7060825,,,1961-09-01,2000-05-01,
BONNARD 1,50.73,-71.01,498 m,WKD,71383,7060826,1994-02-01,+,1994-12-01,2021-03-01,
BONNER LAKE,49.38,-82.12,245 m,,,6070QK6,,,1990-12-01,2021-03-01,
BONNIE VIEW,49.32,-112.63,1250 m,,,3040735,,,1977-03-01,1981-07-01,
BONNINGTON FALLS,49.45,-117.48,457 m,,,1140903,,,1924-01-01,1939-11-01,
BONNYVILLE EXP ST,54.28,-110.63,549 m,,,3080740,,,1952-01-01,1954-04-01,
BONSECOURS,45.4,-72.27,297 m,,,7020828,,,1967-01-01,2020-12-01,
BORDEN (CFB Borden),44.27,-79.92,223 m,YBN,,611B001,1996-10-02,2013-07-03,,,Alliston
BORDEN,46.25,-63.7,8 m,,,8300150,,,1958-09-01,1967-12-01,
BORDEN 18N,52.55,-107.23,541 m,,,4050774,,,1999-11-01,2007-03-01,
BORDEN A,44.27,-79.93,227 m,,,6110827,,,1966-09-01,1970-03-01,
BORDEN AWOS (CFB Borden),44.27,-79.91,223 m,YBN,71534,611B002,2005-05-12,+,2000-02-01,+,Alliston
BORDEN STP,44.3,-79.9,201 m,,,6110HK7,,,1985-12-01,1992-09-01,
BORDER (AUT),55.33,-63.22,479 m,WTB,,7110831,1994-02-01,1998-09-15,1993-01-01,1998-09-01,
BORDER A,55.33,-63.22,465 m,,,7110830,1965-01-12,1979-07-31,1965-01-01,1979-07-01,
BOSS MOUNTAIN,52.1,-120.88,1532 m,,,1090904,,,1967-01-01,1984-01-01,
BOSTON BAR,49.87,-121.45,163 m,,,1110R04,,,1968-04-01,1968-08-01,
BOSTON BAR,49.87,-121.43,200 m,,,111090M,,,1974-10-01,1989-05-01,
BOSTON BAR ALPINE,49.92,-121.45,213 m,,,111090D,,,1985-06-01,1985-08-01,
BOSWELL,49.48,-116.75,573 m,,,1140905,,,1911-03-01,1940-05-01,
BOTWOOD,49.15,-55.35,15 m,,,8400650,,,1937-08-01,1995-06-01,
BOUCTOUCHE,46.52,-64.72,11 m,,,8100590,,,1965-10-01,1999-07-01,
BOUCTOUCHE CDA,46.43,-64.77,36 m,,,8100592,,,1982-07-01,1991-10-01,
BOUCTOUCHE CDA CS (Bouctouche AAFC),46.43,-64.77,36 m,ABT,71666,8100593,2005-07-13,+,1991-08-01,+,Bouctouche
,,,,,,,,,,,Richibucto
,,,,,,,,,,,Shediac
BOUNDARY,64.23,-140.35,1036 m,,,2100165,,,1967-01-01,1978-05-01,
BOUNDARY LAKE,56.33,-120.1,711 m,,,1180R07,,,1982-10-01,1987-05-01,
BOURGET,45.47,-75.17,66 m,,,6100828,,,1950-11-01,1951-05-01,
BOVINE CREEK AFS,56.11,-112.55,518 m,,,3060756,,,1995-06-01,2011-09-01,
BOW ISLAND,49.87,-111.38,799 m,,,3030769,,,2003-05-01,2004-07-01,
BOW ISLAND (Bow Island Climate),49.73,-111.45,817 m,WXL,71231,3030768,1994-02-01,+,1993-06-01,+,Bow Island
BOW ISLAND EXP ST,49.87,-111.37,799 m,,,3030770,,,1955-01-01,1959-12-01,
BOW ISLAND IRRIGATION AGDM,49.87,-111.37,796 m,PXL,71519,3030772,2004-06-18,+,2004-06-01,2021-03-01,
BOW ISLAND RIVERS DEV,49.87,-111.37,799 m,,,3030773,,,1958-09-01,1976-04-01,
BOW SUMMIT (PC),51.72,-116.48,2012 m,,,305A002,,,1999-03-01,2007-11-01,
BOW VALLEY (Bow Valley),51.08,-115.07,1298 m,WXA,71232,3050778,1994-02-01,+,1993-06-01,+,Bow Valley (Provincial Park)
BOW VALLEY PROV PARK,51.08,-115.07,1318 m,,,3050779,,,1967-05-01,1990-05-01,
BOWDEN,51.98,-114.02,915 m,,,3020760,,,1957-01-01,1985-05-01,
BOWEN ISL ARBUTUS BAY,49.33,-123.38,21 m,,,1040909,,,1961-01-01,1998-09-01,
BOWEN ISLAND,49.35,-123.42,23 m,,,1040908,,,1959-07-01,1965-12-01,
BOWEN ISLAND BOWEN BAY,49.36,-123.42,37 m,,,104090R,,,1966-03-01,2014-03-01,
BOWEN ISLAND CATES BAY,49.41,-123.32,27 m,,,1040911,,,1987-04-01,2000-05-01,
BOWEN ISLAND JOSEPHINE RIDGE,49.37,-123.38,160 m,,,104091A,,,1992-05-01,1996-02-01,
BOWEN ISLAND KILLARNEY LAKE,49.4,-123.37,50 m,,,1040R1J,,,1992-05-01,1996-06-01,
BOWEN ISLAND MILLERS LDG,49.39,-123.33,91 m,,,1040R09,,,1972-04-01,2001-12-01,
BOWEN ISLAND SUNSET PARK,49.36,-123.4,185 m,,,104091B,,,1992-05-01,2021-03-01,
BOWMANVILLE,43.92,-78.65,122 m,,,6150829,,,1947-08-01,1957-12-01,
BOWMANVILLE MOSTERT,43.92,-78.67,99 m,,,6150830,,,1966-06-01,2002-03-01,
BOWNESS,51.12,-114.22,1036 m,,,3030775,,,1959-01-01,1959-08-01,
BOWRON LAKE,53.28,-121.45,945 m,,,1090R0R,,,1974-04-01,1990-08-01,
BOWSER,49.45,-124.67,3 m,,,1020910,,,1957-03-01,1958-08-01,
BOYLE,54.57,-112.87,671 m,,,3060780,,,1956-03-01,1958-03-01,
BRABANT LAKE,56.12,-103.75,381 m,,,4060790,,,1966-11-01,1973-03-01,
BRACEBRIDGE,45.05,-79.32,250 m,,,6110851,,,1984-07-01,1989-02-01,Bracebridge
BRACEBRIDGE ONT HYDRO,45.03,-79.3,267 m,,,6110854,,,1983-07-01,1987-01-01,Bracebridge
BRACKEN CDA EPF,49.2,-108.1,888 m,,,4030800,,,1951-01-01,1972-11-01,
BRACKEN NORTH,49.38,-108.12,914 m,,,4030805,,,1973-05-01,1977-08-01,
BRACKLEY BEACH,46.42,-63.33,49 m,,,8300200,,,1952-05-01,1956-11-01,
BRADFORD,44.1,-79.5,221 m,,,6150857,,,1951-09-01,1957-06-01,
BRADFORD 2,44.12,-79.53,221 m,,,6150858,,,1954-08-01,1958-02-01,
BRADFORD BROWN,44.15,-79.57,293 m,,,6110859,,,1972-05-01,1976-04-01,
BRADFORD HIGH SCHOOL,44.12,-79.5,252 m,,,6150860,,,1960-09-01,1962-04-01,
BRADFORD MUCK RESEARCH,44.03,-79.6,221 m,,,6150863,,,1974-01-01,1998-11-01,
BRADFORD OAC,44.1,-79.6,244 m,,,6150865,,,1960-05-01,1966-09-01,
BRADFORD ODA,44.12,-79.55,221 m,,,6150866,,,1966-08-01,1968-01-01,
BRADFORD SPRINGDALE,44.03,-79.62,221 m,,,6150867,,,1966-07-01,1982-05-01,
BRAEBURN,61.47,-135.78,716 m,,,2100167,,,1974-05-01,1995-07-01,
BRAESHORE,45.7,-62.65,8 m,,,8200590,,,1975-09-01,1984-01-01,
BRAGG CREEK WEST,50.97,-114.62,1372 m,,,3030796,,,1975-05-01,1985-05-01,
BRAINTREE 1,49.63,-95.57,316 m,,,5030334,,,1983-11-01,1984-11-01,
BRAINTREE 2,49.6,-95.62,316 m,,,5030335,,,1983-11-01,1995-02-01,
BRALORNE,50.78,-122.82,1015 m,,,1080930,,,1924-08-01,1963-06-01,
BRAMALEA,43.68,-79.72,206 m,,,6150898,,,1967-09-01,1971-02-01,
BRAMPTON,43.7,-79.77,221 m,,,6150913,,,1870-12-01,1964-12-01,Brampton
BRAMPTON AIRPORT,43.77,-79.88,274 m,,,6150914,,,1991-08-01,1992-08-01,
BRAMPTON MOE,43.67,-79.7,183 m,,,6150916,,,1962-07-01,1993-12-01,
BRANCH,46.88,-53.97,12 m,,,8400666,,,1983-12-01,2017-01-01,
BRANDON #1 WINTER BAY,49.83,-99.98,396 m,,,5010498,,,1987-07-01,2002-04-01,
BRANDON A (Brandon Airport),49.91,-99.95,409 m,YBR,71140,5010481,2012-12-03,+,2012-12-01,+,Brandon
,,,,,,,,,,,Minnedosa
,,,,,,,,,,,Souris
BRANDON A (Brandon Airport),49.91,-99.95,409 m,YBR,71140,5010480,1958-01-01,2012-12-06,1941-07-01,2012-12-01,Brandon
,,,,,,,,,,,Minnedosa
,,,,,,,,,,,Souris
BRANDON CDA,49.87,-99.98,363 m,,,5010485,,,1890-01-01,2010-03-01,
BRANDON RCS,49.9,-99.95,409 m,PBO,71136,5010490,2012-01-09,+,2012-01-01,+,Brandon
,,,,,,,,,,,Minnedosa
,,,,,,,,,,,Souris
BRANDON SOUTH,49.82,-99.95,396 m,,,5010494,,,1972-05-01,1975-09-01,
BRANDT PEAK,63.05,-140.93,1128 m,,,2100168,,,1976-05-01,1978-09-01,
BRANT,50.45,-113.5,991 m,,,3030798,,,1983-04-01,1989-11-01,
BRANTFORD,43.13,-80.27,206 m,,,6140941,,,1876-01-01,1963-06-01,
BRANTFORD AIRPORT (Brantford Municipal Airport),43.14,-80.33,246 m,TBF,71602,6140942,2014-12-11,+,2014-12-01,+,Brantford
BRANTFORD BRANT PARK,43.15,-80.3,213 m,,,6140948,,,1972-11-01,1973-11-01,
BRANTFORD MOE,43.13,-80.23,196 m,,,6140954,,,1960-06-01,2013-01-01,
BRANTFORD MORELL,43.15,-80.28,198 m,,,6140951,,,1959-05-01,1964-10-01,
BRANTRIDGE DOMINICA,15.38,-61.35,442 m,,,9040900,,,,,
BRATT'S LAKE CLIMATE,50.2,-104.71,580 m,XBK,71569,4010811,2006-01-01,+,2005-11-01,2021-03-01,
BRAY ISLAND,69.22,-77.25,18 m,,,2400560,,,1959-01-01,1993-03-01,
BRAZEAU LO,53.02,-115.42,1088 m,,,3010800,,,1940-05-01,2011-09-01,
BRE #3 RIV-AUX-RATS,49.22,-72.25,335 m,,,7060479,,,1963-02-01,1969-06-01,
BRECHIN BEACH,44.53,-79.2,220 m,,,611095R,,,1985-12-01,1994-11-01,
BREMNER,53.58,-113.28,678 m,,,3010810,,,1962-03-01,1972-05-01,
BRENTWOOD BAY 2,48.6,-123.47,38 m,,,1010960,,,1987-11-01,1997-05-01,
BRENTWOOD CLARKE ROAD,48.57,-123.45,31 m,,,1010961,,,1972-05-01,1980-03-01,
BRENTWOOD W SAANICH RD,48.57,-123.43,91 m,,,1010965,,,1960-08-01,1970-06-01,
BRETON,53.17,-114.48,843 m,,,3010815,,,1961-08-01,2020-05-01,
BRETON PLOTS (Breton),53.09,-114.44,852 m,WOV,71233,3010816,1995-05-04,+,2001-12-01,+,Breton
BRETON TOWN,53.12,-114.47,837 m,,,3010817,,,1977-08-01,1989-08-01,
BREVOORT ISLAND,63.34,-64.15,376 m,WOB,71097,2400565,1960-04-27,+,1959-11-01,2021-03-01,
BRIARFIELD,53.73,-111.05,633 m,,,3010827,,,1987-05-01,1995-02-01,
BRIDESVILLE,49.05,-119.17,1187 m,,,1130975,,,1957-07-01,1994-10-01,
BRIDGE LAKE,51.47,-120.73,1157 m,,,1160985,,,1975-09-01,1995-06-01,
BRIDGE LAKE 2,51.5,-120.79,1155 m,,,1160986,,,1980-08-01,2010-10-01,
BRIDGE RIVER,50.85,-122.43,610 m,,,1090989,,,1924-01-01,1929-07-01,
BRIDGE RIVER,50.73,-122.22,253 m,,,1090990,,,1935-07-01,1953-02-01,
BRIDGETOWN,44.83,-65.3,8 m,,,8200596,,,1998-01-01,2012-09-01,
BRIDGEWATER,44.4,-64.55,27 m,,,8200600,,,1961-09-01,2014-06-01,
BRIER ISLAND (Brier Island),44.29,-66.35,16 m,WVU,71988,8200604,1969-12-31,+,2005-10-01,+,Brier Island
,,,,,,,,,,,Digby
BRIERCREST,50.15,-105.27,594 m,,,4010840,,,1952-11-01,1992-08-01,
BRIERCREST 2,50.08,-105.35,629 m,,,4010842,,,1983-08-01,1993-01-01,
BRIGHAM,45.25,-72.85,91 m,,,7020833,,,1968-07-01,1972-05-01,
BRIGHTON,44.07,-77.73,93 m,,,6150961,,,1948-05-01,1950-08-01,
BRIGHTVIEW,52.98,-113.72,815 m,,,3010830,,,1961-06-01,2012-04-01,
BRIGHTWOOD,53.5,-114.93,793 m,,,3060832,,,1965-02-01,1973-02-01,
BRISCO,50.82,-116.26,823 m,,,1171020,,,1924-01-01,2004-03-01,
BRITANNIA BEACH FURRY CR,49.58,-123.22,9 m,,,1041050,,,1913-12-01,2000-04-01,
BRITANNIA MILLS,45.63,-72.82,69 m,,,7020835,,,1968-06-01,1975-11-01,
BRITT (AUT),45.8,-80.53,190 m,WBI,,6110967,1994-02-01,2001-06-01,1992-12-01,2010-07-01,
BROAD VALLEY,50.98,-97.47,259 m,,,5030510,,,1970-06-01,1995-01-01,
BROADVIEW,50.38,-102.55,597 m,,,4010878,,,1904-08-01,1938-10-01,
BROADVIEW (Broadview),50.37,-102.57,600 m,WIK,71861,4010879,1965-02-01,+,1965-02-01,+,Broadview
,,,,,,,,,,,Moosomin
BROADVIEW,50.38,-102.68,600 m,WXU,,401I010,1995-06-01,2003-09-30,1995-06-01,2009-10-01,
BROADVIEW A,50.25,-102.53,620 m,,,4010880,1953-01-01,1965-01-31,1938-07-01,1965-01-01,
BROCHET A,57.89,-101.68,346 m,,,5060520,1953-01-01,1979-12-31,1948-08-01,2009-09-01,
BROCKET AGDM,49.62,-113.82,1073 m,XBR,71341,3030830,2002-01-07,+,2001-12-01,2021-03-01,
BROCKVILLE,44.6,-75.7,91 m,,,6100969,,,1871-10-01,1980-08-01,
BROCKVILLE CLIMATE (Brockville),44.64,-75.75,120 m,TBO,71161,6100970,2008-10-21,+,2008-11-01,+,Brockville
BROCKVILLE PCC,44.6,-75.67,96 m,,,6100971,,,1965-08-01,+,Brockville
BROCKWAY,45.5,-67.12,84 m,,,8100570,,,1958-02-01,1966-12-01,
BRODDYTOWN,43.62,-79.6,145 m,,,6150997,,,1951-07-01,1956-08-01,
BROKENHEAD,50.27,-96.52,229 m,,,5030523,,,1981-08-01,1984-10-01,
BROME,45.18,-72.57,206 m,,,7020840,,,1875-06-01,2014-07-01,
BROMONT,45.3,-72.63,175 m,,,7020850,,,1968-07-01,1978-06-01,
BROMPTONVILLE,45.48,-71.95,130 m,,,7020860,,,1957-06-01,2020-12-01,
BRONSON CREEK,56.67,-131.1,107 m,,,1201086,,,1989-05-01,1999-09-01,
BROOKDALE,50.02,-99.57,392 m,,,5010524,,,1987-08-01,2003-11-01,
BROOKMERE,49.82,-120.87,972 m,,,1121090,,,1986-07-01,1994-04-01,
BROOKS (Brooks),50.56,-111.85,747 m,WBO,71457,3030QLP,1994-02-01,+,1988-12-01,+,Brooks
BROOKS,50.58,-111.9,755 m,,,3030838,1966-02-14,1979-03-31,1966-02-01,1980-05-01,
BROOKS 1,50.57,-111.9,758 m,,,3030840,,,1912-04-01,1968-08-01,
BROOKS AHRC,50.55,-111.85,758 m,,,3030856,,,1915-04-01,1988-10-01,
BROOKS NORTH,50.62,-111.88,759 m,,,3030862,,,1970-06-01,2002-09-01,
BROOKS ONE TREE,50.63,-111.78,737 m,,,3020864,,,1960-04-01,1991-06-01,
BROUGHAM,43.92,-79.12,198 m,,,6151000,,,1965-08-01,1975-05-01,
BROUGHTON ISLAND,67.54,-63.79,584 m,WVD,71096,2400570,1956-06-05,+,1957-09-01,2021-03-01,
BROUGHTON STATION,46.2,-71.12,373 m,,,7020865,,,1965-05-01,1981-08-01,
BROUGHTON VILLAGE,67.55,-64.03,9 m,,,2400574,,,1971-06-01,1974-10-01,
BROUILLAN,49.8,-78.95,259 m,,,7090866,,,1977-06-01,1986-11-01,
BROWN RIVER,66.03,-91.83,150 m,WBR,,2301331,1994-02-01,2001-07-04,1994-12-01,2004-06-01,
BROWNFIELD,52.32,-111.47,755 m,,,3010890,,,1958-09-01,2009-06-01,
BROWNSDALE,48.03,-53.12,10 m,,,8400675,,,1998-08-01,2015-09-01,
BROWNVALE AGCM,56.12,-117.89,748 m,PBN,71283,3070800,2008-06-05,+,2008-06-01,2021-03-01,
BRUCE MINES,46.3,-83.92,181 m,,,6051027,,,1898-09-01,1914-03-01,
BRUCE MINES RADIGAN,46.3,-83.75,178 m,,,605102G,,,1978-11-01,1980-04-01,
BRUCE ONTARIO HYDRO,44.33,-81.58,180 m,,,61210K7,,,1971-08-01,1977-10-01,
BRUCEFIELD,43.55,-81.55,259 m,,,6121025,,,1903-03-01,1993-12-01,
BRUCEJACK LAKE,56.47,-130.17,1372 m,,,1071092,,,1988-07-01,1990-08-01,
BRUCES MILL,44,-79.33,358 m,,,615J02G,,,1968-12-01,1974-04-01,
BRUDERHEIM,53.78,-112.93,640 m,,,3010900,,,1899-09-01,1962-12-01,
BRULE BLACK CAT,53.35,-117.87,1036 m,,,3060903,,,1985-07-01,2021-03-01,
BRUNSWICK MINES,47.48,-65.88,213 m,,,8100583,,,1973-01-01,1981-03-01,
BRUSSELS,43.73,-81.23,340 m,,,6121030,,,1965-08-01,1967-09-01,
BRYN MYRDDIN FARM,60.87,-135.38,686 m,,,2100174,,,1988-05-01,1996-08-01,
BUCCANEER BAY,49.48,-123.97,2 m,,,1041100,,,1927-08-01,1948-11-01,
BUCHANAN,51.72,-102.73,503 m,,,4010960,,,1954-01-01,1958-08-01,
BUCHANAN,51.72,-102.83,503 m,,,4010961,,,1965-03-01,1970-05-01,
BUCHANS,48.82,-56.87,270 m,,,8400698,,,1965-07-01,2011-06-01,
BUCHANS,48.82,-56.85,220 m,,,8400699,,,1937-01-01,1947-01-01,
BUCHANS A,48.85,-56.83,276 m,,,8400700,1953-01-01,1965-06-30,1943-11-01,1965-06-01,
BUCHANS JUNCTION,48.85,-56.47,161 m,,,8400711,,,1988-07-01,1997-05-01,
BUCK MOUNTAIN,53.03,-114.7,914 m,,,3010RK0,,,1967-10-01,1970-08-01,
BUCK MOUNTAIN,53.02,-114.7,1061 m,,,3010920,,,1939-05-01,1951-07-01,
BUCKINGHAM,45.58,-75.42,137 m,,,7030874,,,1960-04-01,1985-01-01,
BUCKINGHORSE RIVER,57.38,-122.87,1097 m,,,1191101,,,1973-08-01,1977-10-01,
BUCKTON LO,57.87,-112.1,793 m,,,3060922,,,1965-06-01,2010-08-01,
BUFFALO,50.93,-110.93,625 m,,,3020952,,,1982-06-01,1983-07-01,
BUFFALO AGCM,50.8,-110.69,723 m,PXB,,3020950,2012-11-07,+,2018-05-01,2021-03-01,
BUFFALO HEAD PRAIRIE,58.05,-116.27,335 m,,,3070960,,,1932-11-01,1959-09-01,
BUFFALO LAKE,51.71,-121.08,989 m,,,1161104,,,1962-05-01,2016-11-01,
BUFFALO LO,57.95,-116.22,793 m,,,3070970,,,1958-05-01,2011-09-01,
BUFFALO NARROWS,55.87,-108.48,421 m,,,4060980,,,1962-01-01,1968-06-01,
BUFFALO NARROWS,55.85,-108.47,423 m,,,4060981,1968-07-01,1979-10-31,1968-07-01,1979-10-01,
BUFFALO NARROWS (AUT),55.84,-108.42,440 m,WVT,71077,4060983,1994-02-01,+,1992-12-01,+,Buffalo Narrows
,,,,,,,,,,,La Loche
BUFFALO NARROWS A (Buffalo Narrows Airport),55.84,-108.42,434 m,YVT,,4060988,2014-10-23,+,2018-10-01,+,Buffalo Narrows
,,,,,,,,,,,La Loche
BUFFALO NARROWS A (Buffalo Narrows Airport),55.83,-108.43,434 m,YVT,71077,4060982,1979-11-01,2012-11-08,1979-11-01,2012-11-01,Buffalo Narrows
,,,,,,,,,,,La Loche
BUFFALO NARROWS A (Buffalo Narrows Airport),55.84,-108.42,434 m,YVT,,4060984,2012-11-08,2019-10-08,,,Buffalo Narrows
,,,,,,,,,,,La Loche
BUFFALO POUND LAKE,50.55,-105.38,588 m,,,4010984,,,1965-01-01,2021-03-01,
BUGABOO CREEK LODGE,50.75,-116.71,1529 m,,,1171105,,,1972-10-01,2006-05-01,
BULL ARM,47.82,-53.9,119 m,,,8400755,1994-06-08,1997-05-28,,,
BULL HARBOUR,50.92,-127.95,14 m,,,1031110,1953-01-01,1988-12-31,1921-07-01,1988-12-01,
BULL SPRINGS AGCM,50.34,-110.48,780 m,PBU,,3030879,2012-11-07,+,2018-05-01,2021-03-01,
BULLHORN COULEE RESERVOIR,49.3,-113.36,1115 m,PBR,71839,3050960,2006-12-31,+,2007-03-01,2021-03-01,
BULLHORN HEADWATERS,49.15,-113.55,1326 m,PBH,71016,3050965,2007-03-11,+,2007-03-01,2021-03-01,
BULLMOOSE,55.23,-121.38,1102 m,,,1181120,,,1982-11-01,2003-03-01,
BULLPOUND CREEK,51.28,-111.88,793 m,,,3020973,,,1982-05-01,1992-08-01,
BULWER,45.35,-71.7,288 m,,,7020877,,,1965-04-01,1982-03-01,
BUNTZEN BAY,49.38,-122.86,10 m,,,1101138,,,1971-11-01,2007-02-01,
BUNTZEN LAKE,49.38,-122.87,10 m,,,1101140,,,1924-01-01,1983-05-01,
BURCHELL LAKE,48.62,-90.58,465 m,,,6041036,,,1962-08-01,1967-08-01,
BURFORD,43.1,-80.43,259 m,,,6141040,,,1970-10-01,1971-09-01,
BURGEO,47.62,-57.62,11 m,,,8400798,1966-11-07,1995-07-31,1966-11-01,1995-07-01,
BURGEO 2,47.62,-57.62,11 m,WBF,,8400800,1994-02-01,2006-07-27,1939-01-01,2006-07-01,
BURGEO NL (Burgeo),47.62,-57.62,11 m,ABF,71152,8400801,2006-01-23,+,2006-08-01,+,Burgeo
BURIN,47,-55.17,15 m,,,8400810,,,1909-02-01,1931-10-01,
BURK'S FALLS,45.66,-79.4,335 m,,,6111050,,,2006-08-01,2010-03-01,
BURK'S FALLS 2,45.58,-79.6,310 m,,,61110M6,,,1988-05-01,1995-04-01,
BURKETON MCLAUGHLIN,44.03,-78.8,312 m,,,6151042,,,1969-02-01,2002-03-01,
BURKS FALLS,45.6,-79.57,320 m,,,6111045,,,1888-03-01,1986-07-01,
BURLEIGH FALLS,44.57,-78.22,244 m,,,6161050,,,1975-10-01,1994-10-01,
BURLINGTON,43.35,-79.8,105 m,,,6151053,,,1947-04-01,1974-04-01,
BURLINGTON DRURY LANE,43.33,-79.8,91 m,,,6151055,,,1961-10-01,1970-08-01,
BURLINGTON ELIZABETH GDN,43.37,-79.73,84 m,,,6151057,,,1961-12-01,1977-05-01,
BURLINGTON FIRE HQ'S,43.35,-79.82,114 m,,,6151059,,,1970-05-01,1983-01-01,
BURLINGTON PIERS (AUT) (Burlington Lift Bridge),43.3,-79.8,77 m,WWB,71437,6151061,1994-02-01,+,1992-12-01,+,Burlington
,,,,,,,,,,,Oakville
BURLINGTON SKYWAY,43.32,-79.8,76 m,,,6151063,,,1968-04-01,1970-06-01,
BURLINGTON TS,43.33,-79.83,99 m,,,6151064,,,1951-04-01,1999-09-01,Burlington
,,,,,,,,,,,Oakville
BURNABY BC INST TECHNOL,49.25,-123,31 m,,,1101142,,,1966-04-01,1968-10-01,
BURNABY BRANTFORD,49.23,-122.97,125 m,,,1101144,,,1959-12-01,1970-03-01,
BURNABY CAPITOL HILL,49.29,-122.99,183 m,,,1101146,,,1960-01-01,2001-12-01,
BURNABY CARIBOO DAM,49.25,-122.92,13 m,,,11011MF,,,1979-05-01,1987-12-01,
BURNABY CURTIS,49.28,-122.97,99 m,,,1101147,,,1968-07-01,1973-05-01,
BURNABY EAST,49.22,-122.75,120 m,,,11011N0,,,1978-05-01,1980-08-01,
BURNABY EAST,49.23,-122.93,114 m,,,1101150,,,1955-07-01,1958-04-01,
BURNABY EDMONDS,49.22,-122.95,99 m,,,1101151,,,1959-12-01,1962-12-01,
BURNABY LAKE,49.27,-122.95,66 m,,,1101153,,,1960-01-01,1963-03-01,
BURNABY LAKE WEST,49.27,-122.98,34 m,,,1101154,,,1964-01-01,1964-07-01,
BURNABY METROTOWN,49.22,-123,125 m,,,110A1ND,,,1987-04-01,1998-03-01,
BURNABY MTN TERMINAL,49.27,-122.93,137 m,,,1101155,,,1958-07-01,1996-04-01,
BURNABY SIMON FRASER U,49.28,-122.92,366 m,,,1101158,,,1965-02-01,2020-08-01,
BURNABY SUNCREST,49.22,-123.02,55 m,,,1101160,,,1955-07-01,1957-06-01,
BURNABY VANCOUVER HTS,49.3,-123.02,82 m,,,1101166,,,1959-12-01,1966-09-01,
BURNHAMTHORPE,43.62,-79.6,145 m,,,6151065,,,1951-05-01,1955-03-01,
BURNS CREEK,50.62,-114.88,1875 m,,,3050974,,,1999-03-01,2007-11-01,
BURNS LAKE,54.23,-125.77,704 m,,,1091169,1969-02-03,1990-11-30,1969-02-01,1990-11-01,
BURNS LAKE 10 SOUTH,54.15,-125.73,783 m,,,1091175,,,1992-07-01,1994-09-01,
BURNS LAKE DECKER LAKE,54.25,-125.8,707 m,,,1091170,,,1949-03-01,1973-01-01,
BURNS LAKE DECKER LAKE (Burns Lake Airport),54.38,-125.96,713 m,WPZ,71952,1091174,1990-12-01,+,1990-12-01,+,Burns Lake
BURNSTICK LO,51.97,-114.78,1219 m,,,3020975,,,1962-05-01,1992-08-01,
BURNT CHURCH,47.2,-65.13,8 m,,,8100600,,,1934-05-01,1958-02-01,
BURNT CHURCH,47.23,-65.13,15 m,,,8100601,,,1974-02-01,1976-06-01,
BURNT POND,48.17,-57.33,299 m,,,8400812,,,1972-07-01,2021-03-01,
BURNT RIVER-CLARK,44.63,-78.7,259 m,,,616J0FN,,,1992-06-01,1992-08-01,
BURNT TIMBER LO,51.5,-115.38,2317 m,,,3050978,,,1975-07-01,1986-09-01,
BURNTWOOD RIVER,55.5,-99.22,215 m,,,5060531,,,2000-03-01,2002-10-01,
BURQUITLAM VANCOUVER GOLF COURSE,49.25,-122.88,122 m,,,1101200,,,1926-01-01,2005-12-01,
BURROUGHS FALLS,45.15,-72,210 m,,,7020880,,,1952-06-01,1954-07-01,
BURWASH,61.37,-139.03,807 m,WDB,,2100179,1994-02-01,2004-02-12,1993-03-01,2004-02-01,
BURWASH A (Burwash Airport),61.37,-139.04,806 m,YDB,,2100180,2012-07-09,2020-10-31,,,Burwash Landing
,,,,,,,,,,,Kluane Lake
BURWASH A (Burwash Airport),61.37,-139.04,805 m,YDB,71001,2100181,2011-12-12,+,2011-12-01,+,Burwash Landing
,,,,,,,,,,,Kluane Lake
BURWASH A (Burwash Airport),61.37,-139.05,806 m,YDB,,2100182,1966-10-01,2012-07-12,1966-10-01,2015-02-01,Burwash Landing
,,,,,,,,,,,Kluane Lake
BURWASH AIRPORT AUTO,61.37,-139.02,807 m,VBR,71195,2100184,2013-09-09,+,2013-09-01,2021-03-01,
BURWASH AWOS,61.37,-139.03,805 m,CBH,,2100185,2008-07-02,2011-12-15,,,
BURY,45.48,-71.52,290 m,,,7020884,,,1960-12-01,1964-04-01,
BURY,45.52,-71.48,378 m,,,7020885,,,1970-06-01,1994-05-01,
BURY (COLLEGE D'ALZON),45.48,-71.5,290 m,,,7020888,,,1963-08-01,1971-09-01,
BUSBY,54,-113.89,701 m,,,3010978,,,1993-09-01,2015-12-01,
BUSBY AGCM,53.93,-113.92,714 m,PBB,71284,3010979,2008-06-05,+,2008-06-01,2021-03-01,
BUTEDALE,53.15,-128.7,15 m,,,1061210,,,1974-06-01,1978-04-01,
BUTLERVILLE,47.58,-53.32,16 m,,,8400QJK,,,1988-06-01,2019-07-01,
BUTTE ST PIERRE,53.45,-109.2,572 m,,,4041000,,,1955-05-01,2021-02-01,
BYRON BAY A,68.75,-109.07,92 m,YUK,71929,2400595,1955-08-04,1994-05-19,1957-06-01,1993-06-01,
CABIN LAKE AGCM,51.02,-111.22,734 m,PCL,,3021000,2012-02-01,+,2018-05-01,2021-03-01,
CABRI,50.52,-108.45,678 m,,,4021025,,,1964-10-01,1975-03-01,
CACHE BAY,46.38,-80.02,198 m,,,608A06G,,,1981-05-01,1985-03-01,
CACHE CREEK 16 MILE,50.92,-121.42,515 m,,,1161215,,,1982-11-01,1998-11-01,
CACHE LAKE,49.83,-74.42,382 m,,,7090960,,,1951-11-01,1960-02-01,
CADILLAC,49.72,-107.75,785 m,,,4021040,,,1923-02-01,1987-02-01,
CADILLAC,48.22,-78.38,321 m,,,7081000,,,1951-09-01,1984-06-01,
CADILLAC,48.2,-78.33,325 m,,,7081002,,,1976-06-01,1978-11-01,
CADILLAC MINE,61.53,-124.75,868 m,,,2200597,,,1970-01-01,1982-05-01,
CADOGAN,52.27,-110.58,671 m,,,3010990,,,1965-11-01,1965-12-01,
CADOGAN,52.25,-110.53,665 m,,,3010991,,,1980-07-01,2002-06-01,
CADOGAN AGCM,52.33,-110.51,690 m,PCA,71012,3010992,2007-09-11,+,2007-09-01,2021-03-01,
CADOTTE LO,56.3,-116.43,732 m,,,3070995,,,1967-05-01,2011-09-01,
CAIRO,42.7,-81.9,198 m,,,6121067,,,1965-07-01,1967-04-01,
CALABOGIE,45.25,-76.73,155 m,,,6101077,,,1950-01-01,1956-03-01,
CALDWELL,49.17,-113.63,1286 m,,,3031000,,,1910-11-01,1990-12-01,
CALEDON,43.87,-79.93,384 m,,,6151079,,,1979-10-01,1980-06-01,
CALEDON NORTH,43.93,-79.95,406 m,,,6151080,,,1998-01-01,2006-12-01,
CALEDON VILLAGE,43.85,-80,423 m,,,6151082,,,1993-10-01,1995-12-01,
CALEDONIA,43.08,-79.95,206 m,,,6131081,,,1931-01-01,1966-11-01,
CALENDULA SIBBALD,51.48,-110.05,719 m,,,3021010,,,1926-05-01,1936-03-01,
CALGARY BEARSPAW,51.1,-114.33,1189 m,,,3031083,,,1965-05-01,1965-08-01,
CALGARY BELLEVIEW,51.1,-114.15,1113 m,,,3031084,,,1961-07-01,1966-08-01,
CALGARY ELBOW VIEW,51.02,-114.2,1128 m,,,303A0Q6,,,1966-08-01,1987-01-01,
CALGARY GLENMORE DAM,51.02,-114.1,1067 m,,,3031090,,,1956-05-01,1979-09-01,
CALGARY INT'L A (Calgary Int'l Airport),51.11,-114.02,1084 m,YYC,71877,3031093,1953-01-01,2012-07-12,1881-10-01,2012-07-01,Airdrie
,,,,,,,,,,,Calgary
CALGARY INT'L CS,51.11,-114,1082 m,PCI,71393,3031094,2008-12-22,+,1999-05-01,+,Airdrie
,,,,,,,,,,,Calgary
CALGARY INTL A (Calgary Int'l Airport),51.12,-114.01,1099 m,YYC,71877,3031092,2012-07-09,+,2012-07-01,+,Airdrie
,,,,,,,,,,,Calgary
CALGARY MARLBOROUGH,51.06,-113.99,1088 m,,,3031076,,,2004-10-01,2012-04-01,
CALGARY MIDNAPORE,50.91,-114.06,1045 m,,,3031078,,,2004-10-01,2012-04-01,
CALGARY NOSE HILL,51.09,-114.1,1138 m,,,3031077,,,2004-10-01,2012-04-01,
CALGARY POPLAR GARDENS,51.03,-114.18,1207 m,,,3031102,,,1987-02-01,2004-12-01,
CALGARY ROSSCARROCK,51.04,-114.15,1148 m,,,3031075,,,2004-10-01,2012-04-01,
CALGARY SIMONS VALLEY,51.22,-114.2,1113 m,,,3031105,,,1962-07-01,1966-11-01,
CALGARY SPRINGBANK,51.07,-114.28,1189 m,,,3031107,,,1970-01-01,1970-11-01,
CALGARY SPRINGBANK,51.1,-114.43,1250 m,,,3031108,,,1961-07-01,1963-10-01,
CALGARY SPRINGBANK A (Springbank Airport),51.11,-114.37,1201 m,YBW,71860,3036077,2012-08-07,2014-04-03,2012-08-01,2014-02-01,Cochrane
CALGARY SPRINGBANK A (Springbank Airport),51.11,-114.37,1201 m,YBW,,3031109,2014-04-03,+,2018-10-01,+,Cochrane
CALLAGHAN VALLEY,50.14,-123.11,884 m,VOD,71688,1101300,2005-01-18,+,2005-06-01,2021-03-01,
CALLAGHAN VALLEY (SKI JUMP TOP),50.14,-123.11,936 m,VOW,,1100001,2006-12-18,2010-04-13,2006-12-01,2010-04-01,
CALLAGHAN VALLEY BIATHLON HIGH LEVEL,50.01,-123.12,883 m,,,1101313,2009-01-20,2010-07-08,2009-01-01,2010-07-01,
CALLAGHAN VALLEY CROSS COUNTRY HIGH LEVEL,50.14,-123.11,922 m,,,1101316,2009-01-20,2010-07-08,,,
CALLAGHAN VALLEY LOW LEVEL,50.14,-123.12,838 m,,,1101318,2009-01-20,2010-07-08,2009-01-01,2010-07-01,
CALLAGHAN VALLEY(BIATHALON),50.15,-123.12,870 m,VOY,,1101310,2007-03-06,2010-07-08,2007-03-01,2010-07-01,
CALLAGHAN VALLEY(SKI JUMP BOTTOM),50.14,-123.11,860 m,VOX,,1101320,2008-01-21,2010-06-23,2008-01-01,2010-06-01,
CALLING LAKE RS,55.25,-113.18,598 m,,,3061117,,,1962-05-01,2011-01-01,
CALMAR,53.29,-113.86,720 m,,,3011120,,,1914-08-01,2018-09-01,
CALMAR TOWNSITE,53.23,-113.8,671 m,,,3011136,,,1952-06-01,1959-03-01,
CALMAR WEST,53.28,-113.87,725 m,,,3011138,,,1970-01-01,1992-09-01,
CAMBORNE,44.05,-78.22,175 m,,,6151090,,,1991-05-01,2002-03-01,
CAMBRIA LO,59.25,-110.8,327 m,,,3071150,,,1987-05-01,2011-08-01,
CAMBRIDGE BAY A (Cambridge Bay Airport),69.11,-105.14,31 m,YCB,71925,2400601,2015-02-10,+,2015-02-01,+,Cambridge Bay
CAMBRIDGE BAY A (Cambridge Bay Airport),69.11,-105.14,31 m,YCB,,2400603,2016-01-13,+,2018-10-01,+,Cambridge Bay
CAMBRIDGE BAY A (Cambridge Bay Airport),69.11,-105.14,31 m,YCB,71925,2400600,1953-01-01,2015-02-12,1929-01-01,2015-02-01,Cambridge Bay
CAMBRIDGE BAY GSN,69.11,-105.14,19 m,XCM,71288,2400602,2002-12-31,+,2002-12-01,2021-03-01,
CAMBRIDGE GALT MOE,43.33,-80.32,268 m,,,6141095,,,1879-09-01,1994-02-01,
CAMBRIDGE STATION,45.07,-64.62,31 m,,,8200630,,,1973-10-01,1978-09-01,
CAMBRIDGE-STEWART,43.35,-80.3,289 m,,,6141100,,,1973-09-01,2000-12-01,
CAMDEN IHD,45.32,-63.2,183 m,,,8200635,,,1973-02-01,1979-03-01,
CAMEO,53.28,-106.55,488 m,,,4051080,,,1952-10-01,1996-05-01,
CAMERON,49.47,-100.47,442 m,,,5010538,,,1984-09-01,2001-01-01,
CAMERON COULEE,50.65,-114.03,1122 m,,,3031151,,,1986-07-01,1989-03-01,
CAMERON FALLS,49.05,-113.92,1311 m,,,3051165,,,1975-03-01,1995-12-01,
CAMERON FALLS,49.15,-88.35,229 m,,,6041109,,,1924-06-01,1998-08-01,
CAMERON FALLS (AUT) (Cameron Falls),49.15,-88.34,233 m,XCA,71291,6041110,2000-08-17,+,1998-03-01,+,Greenstone (Beardmore)
,,,,,,,,,,,Nipigon
CAMERON HILLS,60.3,-117.05,841 m,,,2200606,,,1974-05-01,1974-08-01,
CAMERON LAKE,49.28,-124.58,193 m,,,1021230,,,1924-01-01,1986-08-01,
CAMILLE LAKE,52.42,-121.97,857 m,,,1091235,,,1980-09-01,1997-06-01,
CAMLACHIE,43.03,-82.18,192 m,,,6121123,,,1959-01-01,1968-06-01,
CAMP BORDEN,44.27,-79.9,221 m,,,6111143,,,1960-01-01,1966-08-01,
CAMP BORDEN A,44.32,-79.9,233 m,,,6111145,,,1926-05-01,1945-10-01,
CAMP DES PINS,53.55,-77.67,175 m,,,709A0J4,,,1975-06-01,1990-08-01,
CAMP DES SAULES,52.18,-77.15,244 m,,,709J0A4,,,1978-05-01,1984-09-01,
CAMP M-107,51.07,-67.48,488 m,,,704J01E,,,1974-07-01,1975-04-01,
CAMP PROFOND,50.02,-67.38,107 m,,,704J0AF,,,1974-07-01,1975-10-01,
CAMP TAMARACOUTA,45.83,-74.2,282 m,,,7031017,,,1971-05-01,1987-02-01,
CAMP WAINWRIGHT AIRFIELD 21,52.83,-111.1,689 m,FP7,,301S111,2015-04-27,2015-05-16,,,
CAMPBELL LAKE,50.02,-125.4,15 m,,,1021250,,,1919-08-01,1933-02-01,
CAMPBELL R LAKEVIEW FC,50.2,-125.55,198 m,,,1021264,,,1970-08-01,1973-04-01,
CAMPBELL RIVER,50.02,-125.3,79 m,,,1021260,,,1936-02-01,1969-05-01,
CAMPBELL RIVER A (Campbell River Airport),49.95,-125.27,109 m,YBL,,1021267,2013-06-11,+,,,Campbell River
CAMPBELL RIVER A (Campbell River Airport),49.95,-125.27,109 m,YBL,,1021261,1979-03-01,2013-06-13,1965-01-01,+,Campbell River
CAMPBELL RIVER A (Campbell River Airport),49.95,-125.27,109 m,YBL,,1021270,2014-10-23,+,2018-10-01,+,Campbell River
CAMPBELL RIVER BCFS,50.07,-125.32,128 m,,,1021262,,,1969-06-01,1982-10-01,
CAMPBELL RIVER BCHPA GEN,50.05,-125.32,31 m,,,1021263,,,1972-11-01,1982-08-01,
CAMPBELL RIVER STP,50.02,-125.23,3 m,,,1021265,,,1982-04-01,1996-05-01,
CAMPBELL RIVER SURFSIDE,49.95,-125.21,9 m,,,1021266,,,1981-02-01,2015-10-01,
CAMPBELLCROFT,44.1,-78.38,198 m,,,6151135,,,1961-01-01,1964-10-01,
CAMPBELLCROFT GANARASKA,44.07,-78.5,259 m,,,6151136,,,1979-05-01,1992-11-01,
CAMPBELLFORD,44.3,-77.8,146 m,,,6151137,,,1915-06-01,1997-12-01,
CAMPBELLS CROSS,43.8,-79.87,282 m,,,6151140,,,1951-06-01,1951-09-01,
CAMPBELLTON,48,-66.67,8 m,,,8100700,1953-01-01,1966-11-30,1945-07-01,1966-11-01,
CAMPBELLTON POWER ST,48,-66.68,26 m,,,8100701,,,1937-05-01,1978-05-01,
CAMPBELLVILLE,43.47,-79.93,259 m,,,6151141,,,1967-06-01,1968-05-01,
CAMPSIE,54.13,-114.68,671 m,,,3061200,,,1910-06-01,2013-10-01,
CAMPSIE AUTO,54.13,-114.68,647 m,PZC,71636,3061201,2013-11-07,+,2013-11-01,2021-03-01,
CAMROSE,53.03,-112.8,675 m,,,3011239,,,1928-09-01,1941-05-01,
CAMROSE (Camrose),53.05,-112.82,739 m,WRV,71254,3011240,1994-02-01,+,1946-03-01,+,Camrose
,,,,,,,,,,,Wetaskiwin
CAMROSE 2,52.95,-112.8,738 m,,,3011241,,,1947-04-01,2016-05-01,Camrose
CAMSELL RIVER (AUT),65.62,-118.12,230 m,,,2200617,1983-10-19,1990-11-09,,,
CANAL FLATS,50.15,-115.82,809 m,,,1151290,,,1924-01-01,1948-12-01,
CANAL FLATS RANGER STN,50.15,-115.82,817 m,,,1151288,,,1962-07-01,1982-09-01,
CANBORO,42.97,-79.58,183 m,,,6131165,,,1946-09-01,1971-09-01,
CANDIAC,50.22,-103.25,685 m,,,4011084,,,1983-06-01,1983-07-01,
CANDLE LAKE,53.75,-105.27,495 m,,,405I010,,,1994-06-01,1997-03-01,
CANDO,52.4,-108.12,716 m,,,4041087,,,1970-08-01,1971-09-01,
CANDO,52.4,-108.27,710 m,,,4041088,,,1984-07-01,1999-06-01,
CANFIELD,43,-79.75,189 m,,,6131167,,,1969-11-01,1971-11-01,
CANIM LAKE,51.9,-120.78,945 m,,,1091305,,,1959-03-01,1959-10-01,
CANIM LAKE EAGLE CREEK,51.87,-120.87,780 m,,,1161306,,,1987-06-01,1991-06-01,
CANMORE,51.08,-115.35,1309 m,,,3051260,,,1958-10-01,1958-10-01,
CANNING,43.18,-80.45,259 m,,,6141169,,,1968-04-01,1971-11-01,
CANNING,45.15,-64.45,27 m,,,8200638,,,1979-12-01,1981-05-01,
CANNINGTON MANOR,49.72,-102.03,629 m,,,4011090,,,1895-05-01,1918-03-01,
CANOBIE,47.68,-65.38,34 m,,,8100770,,,1977-09-01,1978-02-01,
CANOE POINT,50.8,-119.07,353 m,,,1161312,,,1910-06-01,1920-09-01,
CANOE RIVER,52.73,-119.38,953 m,,,1171313,,,1971-09-01,1975-10-01,
CANORA,51.63,-102.38,482 m,,,4011095,,,1965-07-01,1984-07-01,
CANSO,45.32,-60.97,26 m,,,8200640,1963-12-13,1971-12-15,1963-12-01,1971-12-01,
CANTERBURY,45.88,-67.47,174 m,,,8100775,,,1970-06-01,1990-06-01,
CAOTIBI,50.72,-67.52,610 m,,,704A0J9,,,1975-08-01,1980-09-01,
CAP AUX CORBEAUX,47.45,-70.45,351 m,,,7041020,,,1958-08-01,1972-05-01,
CAP CHAT,49.08,-66.75,37 m,,,7051040,,,1882-07-01,1974-11-01,
CAP CHAT (AUT),49.08,-66.73,35 m,,,70510M0,1994-02-01,1996-09-29,1993-02-01,1996-09-01,Cap Chat
,,,,,,,,,,,Gaspésie (Parc national)
,,,,,,,,,,,Sainte-Anne-Des-Monts
CAP CHAT DELVAL,49.1,-66.7,31 m,,,7051041,,,1974-12-01,1983-05-01,
CAP CHAT EST,49.12,-66.65,15 m,,,7051042,,,1973-06-01,1973-09-01,
CAP DE LA MADELEINE,46.37,-72.53,17 m,,,7011045,,,1920-12-01,1932-04-01,
CAP DES ROSIERS,48.85,-64.2,15 m,,,7051055,,,1973-10-01,2020-12-01,
CAP LA RONDE,45.57,-60.9,15 m,,,8200750,,,1971-04-01,1972-08-01,
CAP MADELEINE,49.23,-65.32,2 m,,,7051160,,,1882-07-01,1994-05-01,
CAP PELE,46.18,-64.23,31 m,,,8100779,,,1971-11-01,1978-03-01,
CAP ROUGE,46.77,-71.3,12 m,,,7011170,,,1911-05-01,1940-06-01,
CAP SEIZE,49.02,-66.4,229 m,,,7051175,,,1967-01-01,1994-05-01,
CAP TOURMENTE,47.07,-70.78,6 m,,,7041177,,,1971-01-01,1984-12-01,
CAP-CHAT (Cap-Chat),49.11,-66.65,5 m,WSG,71428,705S002,1996-10-08,+,1996-10-01,+,Cap Chat
,,,,,,,,,,,Gaspésie (Parc national)
,,,,,,,,,,,Sainte-Anne-Des-Monts
CAP-D'ESPOIR (Cap-d'Espoir),48.42,-64.32,15 m,WRZ,71429,7051050,1994-02-01,+,1992-12-01,+,Chandler
,,,,,,,,,,,Percé
CAP-MADELEINE (Rivière-la-Madeleine),49.25,-65.32,29 m,WSF,71425,7051163,1994-02-01,+,1992-12-01,+,Grande-Vallée
CAP-ROUGE,48.37,-70.54,7 m,WQM,71186,7041166,1994-02-03,+,1994-07-01,2021-03-01,
CAP-TOURMENTE (Cap Tourmente),47.08,-70.78,6 m,WTN,71384,7041JG6,1994-02-01,+,1993-08-01,+,Baie-Saint-Paul
CAPE BATHURST,70.55,-127.95,17 m,,,2200627,1986-09-11,1989-08-05,,,
CAPE BEALE LIGHT,48.79,-125.22,26 m,,,1031316,,,1984-10-01,2021-03-01,
CAPE BROYLE,47.1,-52.93,6 m,,,8400850,,,1955-10-01,1997-05-01,
CAPE DORSET A (Kinngait (Cape Dorset Airport)),64.23,-79.53,48 m,YTE,,2400633,2012-07-18,+,,,Kinngait
CAPE DORSET A (Kinngait (Cape Dorset Airport)),64.23,-76.53,48 m,YTE,71366,2400637,2012-06-11,+,2012-06-01,+,Kinngait
CAPE DORSET A (Kinngait (Cape Dorset Airport)),64.23,-76.53,48 m,YTE,71910,2400635,1970-09-10,2012-07-26,1963-02-01,2014-11-01,Kinngait
CAPE DORSET AWOS (Kinngait (Cape Dorset Airport)),64.23,-76.53,48 m,YTE,71910,2400634,2008-07-02,2012-06-14,2008-07-01,2012-06-01,Kinngait
CAPE DYER,66.65,-61.38,725 m,WFD,71094,2400650,1955-12-08,+,1958-02-01,2021-03-01,
CAPE DYER A,66.58,-61.62,393 m,,,2400654,1959-09-01,1994-08-17,1959-08-01,1993-09-01,
CAPE GEORGE,45.87,-61.9,120 m,WGU,,8200647,1994-02-01,2002-08-14,,,
CAPE HARRISON,54.77,-58.45,10 m,,,8500900,1953-01-01,1961-12-31,1943-11-01,1961-12-01,
CAPE HERSCHEL,78.62,-74.7,60 m,,,2400658,1973-06-04,1974-09-20,1973-06-01,1974-09-01,
CAPE HOOPER,68.47,-66.8,390 m,WUP,71093,2400660,1956-03-01,+,1957-01-01,2021-03-01,
CAPE HOPES ADVANCE,61.08,-69.55,73 m,,,7111080,1953-01-01,1971-08-31,1928-10-01,1971-08-01,
CAPE JOHN,45.78,-63.08,15 m,,,8200650,,,1959-04-01,1960-10-01,
CAPE KAKKIVIAK,59.99,-64.17,551 m,WKW,71176,8500920,1994-02-01,2018-06-29,1994-12-01,2018-06-01,
CAPE KIGLAPAIT,57.14,-61.48,834 m,WYK,71177,8500926,1994-02-01,2017-10-03,1994-12-01,2017-10-01,
CAPE LAZO,49.7,-124.87,38 m,,,1021320,,,1935-11-01,1962-08-01,
CAPE LIVERPOOL,73.67,-78.29,2 m,NPL,,2400675,2013-07-23,+,2017-05-01,2021-03-01,
CAPE MCLAUGHLIN,68.66,-85.59,383 m,,,24006FL,1992-12-31,1993-04-27,,,
CAPE MERCY,64.96,-63.58,583 m,WYM,71975,2400F63,1994-05-19,2018-08-04,1994-12-01,2018-08-01,
CAPE MUDGE,50,-125.2,5 m,WAD,,1021330,1994-02-01,2001-12-13,1978-09-01,2021-03-01,
CAPE MUDGE CS,50,-125.2,4 m,WYA,,1021332,1998-03-12,1998-11-16,,,
CAPE NOREM,77.47,-110.47,14 m,,,2500667,,,1970-04-01,1970-08-01,
CAPE NORMAN,51.63,-55.9,19 m,,,8400940,,,1882-11-01,1946-12-01,
CAPE NORTH,47.02,-60.45,47 m,,,8200670,,,1958-10-01,1959-02-01,
CAPE PARRY A,70.17,-124.72,87 m,ZCP,71948,2200675,1956-01-01,+,1957-05-01,2021-03-01,
CAPE PEEL,69.05,-107.32,59 m,,,2300680,,,1959-01-01,1963-07-01,
CAPE PEEL WEST,69.04,-107.82,165 m,WPX,71064,2400697,1994-02-01,+,1993-01-01,2021-03-01,
CAPE PROVIDENCE,74.46,-112.16,12 m,NPV,,2501419,2014-11-04,+,2017-05-01,2021-03-01,
CAPE RACE (AUT) (Cape Race),46.66,-53.08,27 m,WRA,71800,8401000,1953-01-01,2021-01-20,1920-10-01,2021-01-01,Cape Race
CAPE SABLE,43.38,-65.62,3 m,,,8200700,,,1948-04-01,1986-04-01,
CAPE SCOTT,50.8,-128.45,6 m,,,1031352,,,1897-04-01,1909-03-01,
CAPE SCOTT,50.78,-128.43,72 m,WES,,1031353,1966-06-01,2001-12-13,1965-12-01,2016-06-01,
CAPE ST GEORGE,48.47,-59.27,46 m,,,8401053,,,1974-10-01,1977-04-01,
CAPE ST JAMES,51.93,-131.02,92 m,,,1051350,1953-01-01,1992-08-31,1925-08-01,1998-04-01,
CAPE ST JAMES,51.94,-131.02,88 m,WZV,71107,1051351,1993-09-30,2020-07-18,1992-11-01,2020-07-01,
CAPE WHITTLE,50.16,-60.06,7 m,WQW,71374,7041100,1994-02-03,+,1963-09-01,2021-03-01,
CAPILANO INTAKE,49.4,-123.15,146 m,,,1041380,,,1924-01-01,1955-10-01,
CAPLAN,48.1,-65.68,23 m,,,7051120,,,1947-04-01,2004-04-01,
CAPPAHAYDEN,46.87,-52.95,15 m,,,8401070,,,1981-05-01,1999-04-01,
CAPPON,51.07,-110.8,758 m,PCN,,3021200,2014-10-21,+,2018-05-01,2021-03-01,
CAPPON SOUTH,51.05,-110.65,738 m,,,3021290,,,1978-06-01,1980-03-01,
CARAMAT,49.27,-85.83,338 m,,,6041193,,,1949-05-01,1983-09-01,
CARAQUET,47.8,-64.93,18 m,,,8100785,,,1980-04-01,1984-06-01,
CARBERRY,49.87,-99.35,385 m,,,5010548,,,1962-07-01,1999-11-01,
CARBERRY CS (Carberry),49.91,-99.36,384 m,WZE,71170,5010547,1994-09-01,+,1994-07-01,+,Carberry
,,,,,,,,,,,Shilo
CARBON,51.48,-113.15,777 m,,,3021309,,,1925-06-01,1982-12-01,
CARBONDALE LO,49.43,-114.37,1798 m,,,3051310,,,1961-06-01,2011-08-01,
CARBONEAR,47.73,-53.23,24 m,,,8401075,,,1972-11-01,1974-05-01,
CARCROSS,60.17,-134.7,660 m,,,2100200,,,1907-02-01,2008-08-01,
CARDALE,50.23,-100.33,556 m,,,5010550,,,1966-11-01,1972-11-01,
CARDINAL,44.8,-75.37,52 m,,,6101200,,,1970-10-01,2000-10-01,
CARDROSS,49.82,-105.65,701 m,,,4011120,,,1953-05-01,1982-08-01,
CARDSTON,49.2,-113.3,,,,3031318,,,1996-01-01,1997-02-01,
CARDSTON (Cardston),49.2,-113.29,1136 m,WFJ,71153,3031322,1994-05-30,+,1994-07-01,+,Cardston
CARDSTON,49.13,-113.24,1193 m,,,3031320,,,1918-08-01,2005-03-01,
CARDSTON EXP ST,49.2,-113.3,1166 m,,,3031328,,,1955-01-01,1963-03-01,
CAREY ISLANDS GREENLAND,76.73,-73.18,10 m,,,9012000,,,,,
CARIBOO LODGE,52.72,-119.47,1096 m,,,1171393,,,1975-11-01,2016-10-01,
CARIBOU ISLAND,47.33,-85.83,187 m,,,6041221,,,1935-05-01,1988-11-01,
CARIBOU ISLAND (AUT),47.33,-85.83,187 m,WCI,71433,6041222,1994-02-01,+,1993-01-01,2021-03-01,
CARIBOU MTN LO,51.52,-114.57,914 m,,,3021330,,,1975-05-01,1975-08-01,
CARIBOU MTN LO,59.52,-114.57,914 m,,,3071330,,,1976-05-01,1990-06-01,
CARIBOU POINT (AUT) (Caribou Point),45.77,-62.68,2 m,WBK,71415,8200774,1994-02-01,+,1993-04-01,+,Caribou
,,,,,,,,,,,New Glasgow
CARLETON,48.12,-66.13,12 m,,,7051186,,,1973-06-01,1985-01-01,
CARLETON PLACE,45.15,-76.17,137 m,,,6101249,,,1948-08-01,1976-02-01,
CARLETON PLACE,45.15,-76.2,145 m,,,6101250,,,1984-04-01,1999-02-01,
CARLETON SUR MER,48.13,-66.12,541 m,,,705AA86,,,1968-10-01,1968-10-01,
CARLSON TOWER,58.92,-111.8,213 m,,,3071332,,,1968-06-01,1974-06-01,
CARLSON'S LANDING LO,58.97,-111.8,244 m,,,3071331,,,1975-05-01,1990-08-01,
CARLTON,52.8,-106.57,521 m,,,4051147,,,1986-11-01,2009-10-01,
CARLYLE,49.63,-102.27,631 m,,,4011160,,,1922-06-01,1996-10-01,
CARMACKS,62.1,-136.3,525 m,,,2100300,,,1963-08-01,2008-08-01,
CARMACKS CS (Carmacks),62.12,-136.19,543 m,XCK,71039,2100301,2000-04-18,+,1999-09-01,+,Carmacks
CARMACKS TOWER,62.18,-136.48,1234 m,,,2100302,,,1974-06-01,1976-08-01,
CARMAN,49.43,-98.15,282 m,,,5020551,,,1964-07-01,2014-12-01,
CARMAN 2,49.52,-98,265 m,,,5020553,,,1885-04-01,1981-10-01,
CARMAN 3,49.52,-97.95,259 m,,,5020N53,,,1984-09-01,1987-08-01,
CARMAN U OF M CS (Carman),49.5,-98.03,268 m,WNK,71147,502I001,1995-06-27,+,1995-06-01,+,Carman
,,,,,,,,,,,Deerwood
CARMANAH,48.63,-124.78,40 m,,,1031400,,,1891-07-01,1902-06-01,
CARMANAH POINT,48.61,-124.75,38 m,,,1031402,,,1968-03-01,2020-05-01,
CARMANGAY,50.15,-112.78,945 m,,,3031338,,,1961-07-01,1965-02-01,
CARMANGAY EXP ST,50.13,-113.1,939 m,,,3031340,,,1955-01-01,1963-02-01,
CARMANGAY EXP ST 2,50.22,-113.02,939 m,,,3031341,,,1955-01-01,1963-02-01,
CARMANGAY EXP ST 3,50.12,-113.33,939 m,,,3031342,,,1955-01-01,1963-03-01,
CARMANGAY PLAINFIELD,50.22,-112.88,914 m,,,3031345,,,1965-11-01,1966-08-01,
CARMANGAY VILLAGE,50.12,-113.11,939 m,,,3031348,,,1965-11-01,2008-01-01,
CARMANVILLE,49.4,-54.27,4 m,,,8401078,,,1982-11-01,2003-03-01,
CARMI,49.5,-119.08,1245 m,,,1131410,,,1924-01-01,1969-03-01,
CARMICHAEL,50.05,-108.65,807 m,,,4021200,,,1953-06-01,1971-03-01,
CARMICHAEL EXP ST,50.05,-108.65,807 m,,,4021240,,,1951-01-01,1954-12-01,
CARNATION CREEK CDF,48.9,-125,61 m,,,1031413,,,1971-04-01,1990-06-01,
CARNDUFF,49.22,-101.75,515 m,,,4011250,,,1962-06-01,2007-11-01,
CARNWOOD,53.23,-114.65,793 m,,,3011350,,,2000-06-01,2016-10-01,
CAROL LAKE PROJECT,52.95,-66.9,,,,8401080,,,1959-09-01,1960-07-01,
CARON,50.45,-105.87,579 m,,,4011280,,,1915-01-01,1984-10-01,
CARP,45.3,-75.98,114 m,,,6101260,,,1960-05-01,1975-03-01,
CARROLL,49.55,-100,488 m,,,5010554,,,1969-11-01,1984-07-01,
CARROLL 2W,49.6,-100.07,457 m,,,50105ED,,,1973-09-01,1975-04-01,
CARROT CREEK,53.62,-115.89,861 m,PCF,,3061350,2015-06-26,+,2018-05-01,2021-03-01,
CARROT CREEK,53.62,-115.8,853 m,,,3061355,,,1980-08-01,1987-10-01,
CARROT CREEK LO,53.45,-115.87,1044 m,,,3061360,,,1939-05-01,2011-09-01,
CARROT RIVER EXP ST,53.33,-103.52,,,,4071360,,,1951-05-01,1956-12-01,
CARRUTHERS,52.9,-109.18,643 m,,,4041405,,,1984-10-01,1993-06-01,
CARSTAIRS WEST,51.57,-114.28,1090 m,,,3021368,,,1984-07-01,1994-06-01,
CARSWELL LAKE,58.53,-109.48,330 m,,,4061410,,,1980-07-01,1985-06-01,
CARTIER,46.7,-81.57,421 m,,,6061263,,,1886-08-01,1948-11-01,
CARTWRIGHT,49.1,-99.35,462 m,,,5020555,,,1883-04-01,1976-09-01,
CARTWRIGHT (Cartwright Airport),53.71,-57.04,14 m,WCA,71818,8501100,1953-01-01,2015-03-12,1934-11-01,2015-03-01,Cartwright
CARTWRIGHT,49.05,-99.42,472 m,,,502055E,,,1979-05-01,1992-03-01,
CARTWRIGHT 2,49.17,-99.52,467 m,,,50205N5,,,1887-09-01,1900-08-01,
CARTWRIGHT A (Cartwright Airport),53.68,-57.04,14 m,WCA,,8501101,2015-03-09,2018-09-12,2015-03-01,2018-10-01,Cartwright
CARTWRIGHT A,53.68,-57.04,14 m,YCA,71818,8501106,2015-07-28,+,2018-10-01,+,Cartwright
CARTYVILLE,48.23,-58.82,31 m,,,8401102,,,1982-01-01,2010-09-01,
CARWAY,49,-113.38,1354 m,PCY,71488,3031402,2012-01-16,+,2012-01-01,2021-03-01,
CARWAY,49,-113.38,1354 m,,,3031400,,,1914-08-01,2011-11-01,
CASCAPEDIA,48.7,-66.22,,,,7051188,,,1918-07-01,1942-09-01,
CASINO CREEK,62.73,-138.83,1100 m,,,2100310,,,1969-08-01,1995-01-01,
CASINO MTN,62.73,-138.83,1005 m,,,2100315,,,1985-06-01,1985-07-01,
CASSIAR,59.28,-129.83,1078 m,,,1191440,,,1954-03-01,1996-08-01,
CASSIAR MINE,59.33,-129.82,1853 m,,,1191442,,,1960-08-01,1963-08-01,
CASTLE,49.4,-114.33,1360 m,,,3051430,,,1958-07-01,2011-09-01,
CASTLE MOUNTAIN VILLAGE,51.27,-115.92,1524 m,,,3051424,,,1983-06-01,2001-02-01,
CASTLE ROCK 6 NORTH,52.54,-122.49,541 m,,,109A4NG,,,1991-04-01,2014-05-01,
CASTLEGAR,49.33,-117.67,434 m,,,1141450,,,1916-07-01,1963-06-01,
CASTLEGAR A (Castlegar Airport),49.3,-117.63,496 m,YCG,,1141456,2013-05-16,+,,,Castlegar
CASTLEGAR A (Castlegar Airport),49.3,-117.63,496 m,YCG,,1141455,1954-01-12,2013-05-16,1965-12-01,2021-03-01,Castlegar
CASTLEGAR A (Castlegar Airport),49.3,-117.63,496 m,YCG,,1141460,2014-10-23,+,2018-10-01,+,Castlegar
CASTLEGAR BCHPA DAM,49.34,-117.77,435 m,,,1141457,,,1969-06-01,2021-03-01,
CASTLEGAR ROBSON PUMPHOUSE,49.34,-117.73,435 m,,,1141463,,,1998-10-01,2003-12-01,
CASTLETON,44.12,-77.88,168 m,,,6151264,,,1972-06-01,1973-02-01,
CASTOR,52.22,-111.92,770 m,,,3011440,,,1951-01-01,1963-04-01,
CASTOR,52.13,-111.9,808 m,,,3011441,,,1969-12-01,1992-10-01,
CAT ARM RIVER,50.08,-56.92,381 m,,,8401104,,,1983-05-01,1984-11-01,
CATARAQUI TS,44.37,-76.62,145 m,,,6101265,,,1960-08-01,1995-04-01,
CATFISH CREEK,53.63,-120.8,648 m,,,109AMEP,,,1986-06-01,1987-07-01,
CATHCART,43.12,-80.57,270 m,,,6141268,,,1962-04-01,1970-08-01,
CATHEDRAL POINT (AUT),52.19,-127.47,26 m,WME,71482,1061458,1994-02-01,+,1994-12-01,2021-03-01,
CAUSAPSCAL,48.37,-67.23,168 m,,,7051200,,,1913-09-01,2020-12-01,
CAUSAPSCAL AIRPORT (Causapscal Airport),48.31,-67.25,123 m,GCL,73005,7051201,2017-03-02,+,2017-04-01,+,Amqui
CAUSAPSCAL RECHERCHES,48.5,-67.17,332 m,,,7051240,,,1951-09-01,1973-12-01,
CAWSTON SIMILKAMEEN,49.18,-119.77,398 m,,,1121459,,,1979-05-01,1992-10-01,
CAYER,51.25,-99.08,259 m,,,5040EN5,,,1972-06-01,1981-09-01,
CAYLEY,50.48,-113.87,1071 m,,,3031450,,,1969-12-01,1972-02-01,
